id,name,lat,lon,date,temp_min,temp_max,temp_afternoon,temp_night,temp_evening,temp_morning,precipitation_total
1,哈尔滨市,45.58,126.29,2026-04-01,2.42,8.62,7.19,7.82,5.49,2.67,0.0
2,尚志市,45.21,127.96,2026-04-01,1.98,9.07,8.37,5.36,5.23,2.56,0.0
3,五常市,44.92,127.16,2026-04-01,2.19,8.99,7.81,6.31,5.74,2.78,0.0
4,巴彦县,46.08,127.4,2026-04-01,2.37,8.31,6.85,6.27,5.61,2.37,0.0
5,宾县,45.75,127.48,2026-04-01,2.03,8.25,6.95,7.03,5.12,2.26,0.0
6,方正县,45.83,128.82,2026-04-01,1.23,8.46,7.87,5.75,4.12,4.05,0.0
7,木兰县,45.95,128.04,2026-04-01,1.92,8.24,6.91,5.11,4.95,2.22,0.0
8,通河县,45.97,128.75,2026-04-01,0.99,8.27,7.44,4.57,4.47,2.52,0.0
9,延寿县,45.45,128.33,2026-04-01,1.91,8.51,7.64,5.91,5.03,2.58,0.0
10,依兰县,46.31,129.56,2026-04-01,2.79,10.05,9.38,6.02,6.21,4.58,0.0
11,齐齐哈尔市,47.35,123.84,2026-04-01,-1.83,9.07,5.47,1.56,6.51,-1.83,0.11
12,讷河市,48.46,124.88,2026-04-01,-2.1,5.28,2.59,0.29,3.02,-2.1,0.0
13,拜泉县,47.6,126.09,2026-04-01,-1.67,6.39,3.81,1.91,4.84,-1.67,0.0
14,富裕县,47.77,124.47,2026-04-01,-2.05,8.16,4.62,1.42,5.23,-2.05,0.17
15,甘南县,47.91,123.5,2026-04-01,-2.71,8.12,5.29,-0.23,5.98,-2.71,0.0
16,克东县,48.04,126.25,2026-04-01,-1.71,4.46,2.16,1.04,2.3,-1.29,0.0
17,克山县,48.04,125.88,2026-04-01,-2.39,4.38,1.58,-0.11,2.19,-2.17,0.0
18,龙江县,47.33,123.2,2026-04-01,-2.15,9.68,6.26,0.53,7.34,-2.15,0.0
19,泰来县,46.39,123.41,2026-04-01,-0.89,10.36,6.55,2.72,8.21,-0.89,0.0
20,依安县,47.89,125.3,2026-04-01,-2.13,6.69,3.56,1.7,5.03,-2.13,0.0
21,牡丹江市,44.57,129.55,2026-04-01,2.66,10.65,10.5,4.87,6.67,3.39,0.0
22,东宁市,44.09,131.12,2026-04-01,2.56,16.74,16.14,4.73,9.67,3.6,0.0
23,海林市,44.59,129.37,2026-04-01,2.12,10.52,9.89,4.47,6.58,3.03,0.0
24,穆棱市,44.92,130.52,2026-04-01,2.32,11.76,11.76,4.59,7.0,3.38,0.0
25,宁安市,44.34,129.48,2026-04-01,1.66,11.9,11.57,3.43,6.09,2.69,0.0
26,绥芬河市,44.41,131.16,2026-04-01,0.43,12.6,12.6,1.77,6.75,1.69,0.0
27,林口县,45.28,130.27,2026-04-01,1.75,11.19,10.03,4.68,5.25,3.34,0.0
28,佳木斯市,46.8,130.31,2026-04-01,2.79,10.01,9.33,6.08,6.47,5.28,0.0
29,抚远市,48.36,134.3,2026-04-01,1.07,12.07,11.23,3.09,4.91,2.23,0.0
30,富锦市,46.33,132.19,2026-04-01,3.1,13.08,12.63,5.51,7.68,4.3,0.0
31,同江市,47.64,132.5,2026-04-01,1.06,11.11,10.81,3.56,5.29,2.59,0.0
32,桦川县,46.24,130.55,2026-04-01,2.7,10.5,9.92,5.62,6.66,4.72,0.0
33,桦南县,46.24,130.55,2026-04-01,2.7,10.5,9.92,5.62,6.66,4.72,0.0
34,汤原县,46.73,129.9,2026-04-01,2.72,9.57,9.32,5.56,6.07,4.87,0.0
35,大庆市,46.58,125.1,2026-04-01,-0.02,7.7,5.15,3.56,6.12,-0.02,0.0
36,杜尔伯特蒙古族自治县,46.86,124.44,2026-04-01,-0.84,7.95,4.85,2.01,5.91,-0.84,0.0
37,林甸县,47.17,124.86,2026-04-01,-1.1,8.21,4.88,2.38,6.15,-1.1,0.0
38,肇源县,45.52,125.08,2026-04-01,0.87,8.73,6.57,4.11,5.99,0.87,0.0
39,肇州县,45.7,125.26,2026-04-01,0.73,8.21,6.09,3.99,5.58,0.73,0.0
40,鸡西市,45.3,125.1,2026-04-01,0.87,8.73,6.57,4.11,5.99,0.87,0.0
41,虎林市,45.76,132.93,2026-04-01,2.89,13.12,11.28,5.48,9.29,3.98,0.0
42,密山市,45.53,131.84,2026-04-01,1.9,14.07,13.75,4.3,8.06,3.12,0.0
43,鸡东县,45.26,131.12,2026-04-01,3.23,13.42,13.42,4.62,7.46,4.49,0.0
44,双鸭山市,46.64,131.15,2026-04-01,2.27,10.92,10.66,5.51,6.25,5.37,0.0
45,宝清县,46.33,132.19,2026-04-01,3.1,13.08,12.63,5.51,7.68,4.3,0.0
46,集贤县,46.73,131.13,2026-04-01,2.55,10.48,10.39,6.14,6.67,5.88,0.0
47,饶河县,46.79,134.01,2026-04-01,0.79,12.44,11.91,2.96,6.26,2.36,0.0
48,友谊县,46.77,131.8,2026-04-01,3.58,12.75,10.98,6.08,7.31,4.78,0.0
49,伊春市,47.72,128.84,2026-04-01,-1.65,4.96,4.61,2.58,0.8,0.3,0.0
50,铁力市,46.98,128.02,2026-04-01,0.79,6.77,5.66,4.77,3.91,1.08,0.0
51,大箐山县,47.14,129.28,2026-04-01,-0.78,7.51,7.19,3.96,3.03,2.62,0.0
52,丰林县,48.29,129.53,2026-04-01,-2.95,4.71,4.71,1.79,-0.41,0.29,0.0
53,嘉荫县,48.89,130.39,2026-04-01,-1.28,6.35,6.02,2.65,1.41,2.02,0.0
54,南岔县,47.14,129.28,2026-04-01,-0.78,7.51,7.19,3.96,3.03,2.62,0.0
55,汤旺县,48.45,129.43,2026-04-01,-4.29,2.75,2.75,1.27,-2.21,-0.52,0.0
56,七台河市,45.77,131.0,2026-04-01,2.37,10.77,9.38,5.5,6.32,4.84,0.0
57,勃利县,45.75,130.57,2026-04-01,1.75,10.54,8.84,5.58,5.49,5.3,0.0
58,鹤岗市,47.35,130.29,2026-04-01,0.1,8.2,7.56,3.84,3.77,2.44,0.0
59,萝北县,47.57,130.84,2026-04-01,0.65,8.63,8.11,4.28,4.52,2.87,0.0
60,绥滨县,47.29,131.85,2026-04-01,2.19,10.83,10.1,5.03,6.58,3.96,0.0
61,黑河市,50.24,127.52,2026-04-01,-4.68,5.32,0.32,5.32,2.32,-2.68,0.41
62,北安市,48.24,126.49,2026-04-01,-1.71,4.46,2.16,1.04,2.3,-1.29,0.0
63,嫩江市,49.18,125.22,2026-04-01,-4.38,2.37,-0.39,-0.99,-1.06,-4.38,0.0
64,五大连池市,48.51,126.19,2026-04-01,-2.72,3.42,0.45,-0.8,0.88,-2.48,0.0
65,孙吴县,49.43,127.33,2026-04-01,-2.97,0.18,-0.48,0.18,-2.12,-1.85,0.34
66,逊克县,49.57,128.48,2026-04-01,-2.95,1.83,1.32,1.83,-2.37,-1.12,0.58
67,绥化市,46.65,126.96,2026-04-01,0.66,7.42,5.99,5.69,4.73,0.66,0.0
68,安达市,46.45,125.3,2026-04-01,0.06,7.5,5.29,3.48,5.62,0.06,0.0
69,海伦市,47.46,126.97,2026-04-01,-0.77,6.24,4.62,4.66,4.29,-0.77,0.0
70,肇东市,46.06,125.98,2026-04-01,0.91,7.81,6.04,4.12,5.05,0.91,0.0
71,兰西县,46.26,126.29,2026-04-01,0.72,7.5,5.93,4.46,5.07,0.72,0.0
72,明水县,47.17,125.91,2026-04-01,-1.41,6.6,4.13,1.93,4.59,-1.41,0.0
73,青冈县,46.69,126.1,2026-04-01,-0.01,7.02,5.14,3.81,4.76,-0.01,0.0
74,庆安县,46.88,127.5,2026-04-01,0.98,7.01,5.78,5.11,4.3,1.03,0.0
75,绥棱县,47.24,127.11,2026-04-01,-0.02,6.81,5.26,5.52,4.51,-0.02,0.0
76,望奎县,46.83,126.48,2026-04-01,0.11,7.11,5.47,4.1,4.75,0.11,0.0
77,加格达奇区,52.5,123.9,2026-04-01,-11.81,-5.24,-6.7,-10.26,-7.72,-11.7,0.0
78,漠河市,52.97,122.54,2026-04-01,-9.93,-3.32,-5.2,-8.92,-4.68,-9.83,0.0
79,呼玛县,51.73,126.65,2026-04-01,-6.86,-2.43,-3.93,-2.85,-4.62,-6.86,0.86
80,塔河县,52.33,124.7,2026-04-01,-11.01,-4.26,-5.81,-8.22,-6.95,-10.69,0.0
81,长春市,43.88,125.31,2026-04-01,2.57,9.84,8.17,8.86,6.6,2.81,0.0
82,公主岭市,43.5,124.82,2026-04-01,2.51,10.27,8.25,8.76,6.81,2.51,0.0
83,德惠市,44.53,125.7,2026-04-01,2.4,9.38,8.0,9.24,6.3,2.4,0.0
84,榆树市,44.82,126.55,2026-04-01,2.42,9.04,7.63,7.37,5.9,2.42,0.0
85,农安县,44.43,125.18,2026-04-01,1.61,8.66,7.05,6.7,5.61,1.61,0.0
86,吉林市,43.83,126.55,2026-04-01,2.86,9.88,8.57,6.42,6.77,3.13,0.0
87,蛟河市,43.72,127.34,2026-04-01,2.07,10.28,9.43,5.46,6.04,3.98,0.0
88,桦甸市,42.97,126.74,2026-04-01,3.76,11.53,11.11,6.3,7.9,4.52,0.0
89,舒兰市,44.41,126.96,2026-04-01,1.86,9.2,7.66,5.88,5.56,2.53,0.0
90,磐石市,42.94,126.06,2026-04-01,2.57,9.71,8.92,6.1,6.42,4.4,0.0
91,永吉县,43.67,126.5,2026-04-01,2.86,9.88,8.57,6.42,6.77,3.13,0.0
92,四平市,43.16,124.35,2026-04-01,2.88,10.54,8.32,8.59,7.39,2.88,0.34
93,双辽市,43.52,123.5,2026-04-01,2.26,10.23,8.44,7.43,7.07,2.26,0.0
94,梨树县,43.3,124.33,2026-04-01,2.67,10.56,8.71,8.96,7.34,2.67,0.11
95,伊通满族自治县,43.34,125.3,2026-04-01,2.08,9.42,8.38,6.27,6.3,2.75,0.0
96,辽源市,42.88,125.14,2026-04-01,2.54,9.54,8.56,6.23,6.64,3.01,0.0
97,东丰县,42.67,125.53,2026-04-01,2.36,9.71,8.69,5.84,6.45,3.96,0.0
98,东辽县,42.92,124.99,2026-04-01,2.54,9.54,8.56,6.23,6.64,3.01,0.0
99,通化市,41.73,125.94,2026-04-01,4.35,13.35,12.95,6.77,8.44,5.38,0.0
100,梅河口市,42.53,125.68,2026-04-01,2.85,10.43,9.34,5.97,7.31,4.54,0.0
101,集安市,41.12,126.19,2026-04-01,2.78,12.73,11.91,4.87,7.4,3.49,0.0
102,通化县,41.68,125.76,2026-04-01,1.86,10.71,10.46,4.25,6.2,2.89,0.0
103,辉南县,42.68,126.04,2026-04-01,3.24,10.46,9.68,6.16,7.36,4.57,0.0
104,柳河县,42.28,125.74,2026-04-01,2.97,10.38,9.73,6.04,6.28,4.47,0.0
105,白山市,41.93,126.42,2026-04-01,3.06,12.1,12.1,5.38,6.82,4.25,0.0
106,临江市,41.81,126.92,2026-04-01,3.2,13.54,12.96,4.82,7.2,4.1,0.21
107,抚松县,42.33,127.28,2026-04-01,1.35,12.48,11.66,3.65,6.48,2.87,0.0
108,靖宇县,42.38,126.81,2026-04-01,3.29,11.63,11.38,4.83,6.43,4.03,0.0
109,长白朝鲜族自治县,41.41,128.2,2026-04-01,3.06,12.68,12.36,4.12,9.23,3.58,0.0
110,松原市,45.14,124.82,2026-04-01,1.29,9.17,7.29,4.61,6.17,1.29,0.0
111,扶余市,44.98,126.05,2026-04-01,2.63,9.44,8.03,8.66,6.23,2.63,0.0
112,长岭县,44.27,123.96,2026-04-01,1.79,9.44,9.44,6.11,7.22,1.79,0.0
113,乾安县,45.0,124.03,2026-04-01,0.52,9.3,6.93,4.59,6.62,0.52,0.0
114,前郭尔罗斯蒙古族自治县,45.11,124.82,2026-04-01,1.29,9.17,7.29,4.61,6.17,1.29,0.0
115,白城市,41.93,126.42,2026-04-01,3.06,12.1,12.1,5.38,6.82,4.25,0.0
116,洮南市,45.36,122.79,2026-04-01,-1.23,10.09,7.28,2.97,7.78,-1.23,0.0
117,大安市,45.51,124.29,2026-04-01,0.26,9.13,6.95,4.33,6.79,0.26,0.0
118,镇赉县,45.85,123.2,2026-04-01,-0.97,10.0,6.87,3.05,8.15,-0.97,0.0
119,通榆县,44.8,123.09,2026-04-01,-0.37,9.4,7.07,3.85,6.86,-0.37,0.0
120,延吉市,42.89,129.5,2026-04-01,1.97,17.33,15.39,3.45,10.79,2.86,0.0
121,图们市,42.97,129.84,2026-04-01,1.36,17.49,16.15,2.67,11.99,2.39,0.0
122,敦化市,43.37,128.23,2026-04-01,2.03,11.45,11.38,3.6,5.82,2.81,0.0
123,珲春市,42.86,130.36,2026-04-01,1.57,17.28,16.2,3.28,8.51,2.82,0.0
124,龙井市,42.76,129.42,2026-04-01,2.66,17.05,15.16,3.88,10.37,3.25,0.0
125,和龙市,42.54,129.0,2026-04-01,4.14,14.75,13.59,4.23,8.62,4.73,0.0
126,汪清县,43.31,129.76,2026-04-01,0.3,15.55,14.19,2.17,9.93,1.71,0.0
127,安图县,43.11,128.9,2026-04-01,1.46,14.89,14.57,2.82,7.97,2.27,0.0
128,海拉尔区,49.23,119.82,2026-04-01,-10.44,0.93,-1.48,-10.1,-3.23,-10.27,0.0
129,满洲里市,49.58,117.43,2026-04-01,-10.72,1.79,-0.53,-8.77,-0.76,-10.72,0.0
130,牙克石市,49.28,120.73,2026-04-01,-12.99,-1.98,-3.41,-10.4,-6.62,-12.99,0.0
131,扎兰屯市,48.01,122.75,2026-04-01,-3.81,7.08,4.68,-1.93,4.84,-3.81,0.0
132,额尔古纳市,50.24,120.18,2026-04-01,-19.91,-3.87,-5.58,-15.74,-9.67,-19.91,0.0
133,根河市,50.78,121.52,2026-04-01,-11.39,-1.92,-3.25,-9.54,-5.06,-11.29,0.0
134,阿荣旗,48.12,123.45,2026-04-01,-2.71,8.12,5.29,-0.23,5.98,-2.71,0.0
135,陈巴尔虎旗,49.33,119.43,2026-04-01,-10.44,0.93,-1.48,-10.1,-3.23,-10.27,0.0
136,新巴尔虎左旗,48.22,118.27,2026-04-01,-8.38,5.25,2.65,-7.04,2.87,-8.38,0.0
137,新巴尔虎右旗,48.67,116.82,2026-04-01,-6.73,5.07,4.04,-5.89,1.14,-6.73,0.0
138,莫力达瓦达斡尔族自治旗,48.48,124.51,2026-04-01,-2.68,4.6,2.21,-1.12,2.15,-2.68,0.0
139,鄂伦春自治旗,50.59,123.72,2026-04-01,-7.94,0.41,-1.42,-5.81,-3.22,-7.94,0.0
140,鄂温克族自治旗,49.15,119.75,2026-04-01,-10.44,0.93,-1.48,-10.1,-3.23,-10.27,0.0
141,乌兰浩特市,46.07,122.09,2026-04-01,-2.67,10.85,7.33,0.23,8.34,-2.67,0.0
142,阿尔山市,47.17,119.93,2026-04-01,-9.43,1.92,-2.66,-8.73,-0.24,-9.43,0.0
143,突泉县,45.38,121.56,2026-04-01,-2.19,10.86,7.68,2.35,8.13,-2.19,0.0
144,科尔沁右翼前旗,46.08,121.95,2026-04-01,-2.67,10.85,7.33,0.23,8.34,-2.67,0.0
145,科尔沁右翼中旗,45.06,121.47,2026-04-01,-2.19,10.86,7.68,2.35,8.13,-2.19,0.0
146,扎赉特旗,46.72,122.89,2026-04-01,-1.78,10.49,7.0,1.41,8.2,-1.78,0.0
147,科尔沁区,43.65,122.24,2026-04-01,1.5,9.73,7.96,5.14,6.83,1.5,0.0
148,霍林郭勒市,45.53,119.66,2026-04-01,-8.67,6.06,3.13,-5.41,4.27,-8.67,0.0
149,开鲁县,43.6,121.31,2026-04-01,0.04,9.95,7.92,3.94,7.15,0.04,0.0
150,科尔沁左翼中旗,44.12,123.31,2026-04-01,1.75,9.35,7.57,4.55,6.19,1.84,0.0
151,科尔沁左翼后旗,42.96,122.36,2026-04-01,2.19,9.4,7.66,5.64,6.05,2.19,0.0
152,库伦旗,42.73,121.81,2026-04-01,2.34,10.13,8.48,6.02,6.79,2.34,0.0
153,奈曼旗,42.84,120.66,2026-04-01,-0.23,8.55,7.02,3.81,6.32,-0.23,0.0
154,扎鲁特旗,44.56,120.91,2026-04-01,-2.59,10.32,7.81,1.97,7.76,-2.59,0.0
155,赤峰市,42.26,118.89,2026-04-01,0.04,8.82,6.32,4.3,7.75,0.04,0.0
156,林西县,43.61,118.06,2026-04-01,-3.54,8.47,5.76,-1.29,6.19,-3.54,0.0
157,宁城县,41.6,119.34,2026-04-01,0.42,9.12,6.84,5.19,7.12,0.42,0.0
158,阿鲁科尔沁旗,43.88,120.09,2026-04-01,-1.59,9.34,7.64,3.55,7.62,-1.59,0.0
159,巴林左旗,43.98,119.38,2026-04-01,-3.3,9.14,6.11,0.03,6.84,-3.3,0.0
160,巴林右旗,43.53,118.67,2026-04-01,-3.85,7.61,5.4,-0.47,5.98,-3.85,0.0
161,克什克腾旗,43.26,117.54,2026-04-01,-6.93,5.56,1.51,-3.79,3.79,-6.93,0.0
162,翁牛特旗,42.94,119.02,2026-04-01,-1.85,8.44,5.78,2.84,7.02,-1.85,0.0
163,喀喇沁旗,41.93,118.7,2026-04-01,-1.41,8.04,4.95,2.8,6.86,-1.41,0.0
164,敖汉旗,42.29,119.92,2026-04-01,-2.25,5.6,3.8,1.02,4.5,-2.25,0.0
165,沈阳市,41.79,123.45,2026-04-01,2.01,12.01,9.01,4.01,10.01,6.01,0.0
166,新民市,41.98,122.83,2026-04-01,4.44,12.11,10.03,9.11,9.63,4.44,0.0
167,康平县,42.5,123.43,2026-04-01,3.14,11.31,9.21,9.41,8.73,3.14,0.0
168,法库县,42.5,123.43,2026-04-01,3.14,11.31,9.21,9.41,8.73,3.14,0.0
169,大连市,38.92,121.64,2026-04-01,3.96,12.96,10.96,8.96,10.96,3.96,0.0
170,瓦房店市,39.62,122.0,2026-04-01,4.92,17.85,17.85,6.34,10.65,5.2,0.0
171,庄河市,39.68,122.96,2026-04-01,7.85,15.75,15.72,10.43,13.52,8.03,0.0
172,长海县,39.28,122.59,2026-04-01,6.76,16.67,16.67,8.36,12.53,8.29,0.0
173,鞍山市,41.10,122.99,2026-04-01,6.95,13.29,11.82,8.62,11.19,6.95,0.0
174,海城市,40.85,122.75,2026-04-01,6.75,13.59,12.3,8.5,11.27,7.31,0.19
175,台安县,41.38,122.43,2026-04-01,5.6,12.72,11.42,9.1,10.94,5.6,0.0
176,岫岩满族自治县,40.29,123.28,2026-04-01,6.74,15.01,14.61,8.92,11.53,6.74,0.0
177,抚顺市,41.88,123.96,2026-04-01,5.82,12.09,11.12,7.81,9.71,5.83,0.0
178,抚顺县,41.88,123.91,2026-04-01,5.82,12.09,11.12,7.81,9.71,5.83,0.0
179,新宾满族自治县,41.73,125.03,2026-04-01,3.61,12.07,11.36,5.29,7.7,4.7,0.0
180,清原满族自治县,42.1,124.92,2026-04-01,2.52,10.34,9.68,4.58,6.3,3.36,0.0
181,本溪市,41.29,123.77,2026-04-01,7.12,13.18,11.76,8.42,10.61,7.45,0.0
182,本溪满族自治县,41.3,124.11,2026-04-01,5.61,13.07,12.1,7.41,9.72,6.07,0.0
183,桓仁满族自治县,41.26,125.35,2026-04-01,6.43,15.88,14.98,7.83,11.21,6.51,0.0
184,丹东市,40.00,124.35,2026-04-01,6.64,18.2,18.0,7.02,11.77,8.02,0.0
185,东港市,39.86,124.15,2026-04-01,6.64,18.2,18.0,7.02,11.77,8.02,0.0
186,凤城市,40.45,124.06,2026-04-01,7.99,18.01,16.01,8.54,13.65,8.64,0.0
187,宽甸满族自治县,40.73,124.78,2026-04-01,6.2,15.94,14.61,6.75,12.55,6.82,0.0
188,锦州市,41.09,121.12,2026-04-01,5.27,14.32,12.5,8.34,11.66,5.27,0.0
189,凌海市,41.16,121.35,2026-04-01,5.09,14.02,12.3,7.86,11.32,5.09,0.0
190,北镇市,41.6,121.8,2026-04-01,4.78,12.93,11.06,8.22,10.36,4.78,0.0
191,黑山县,41.67,122.12,2026-04-01,4.43,12.64,10.7,8.24,10.03,4.43,0.0
192,义县,41.53,121.23,2026-04-01,3.37,11.79,9.99,6.86,9.08,3.37,0.15
193,营口市,40.66,122.23,2026-04-01,5.08,11.56,10.94,5.46,10.25,6.17,0.0
194,盖州市,40.4,122.35,2026-04-01,6.87,13.99,13.03,8.37,11.61,7.18,0.0
195,大石桥市,40.63,122.51,2026-04-01,6.87,13.99,13.03,8.37,11.61,7.18,0.0
196,阜新市,42.02,121.67,2026-04-01,3.43,11.61,9.68,8.28,9.69,3.43,0.0
197,阜新蒙古族自治县,42.06,121.75,2026-04-01,3.25,11.31,9.36,8.63,9.55,3.25,0.0
198,彰武县,42.38,122.54,2026-04-01,3.65,11.88,10.04,8.44,9.08,3.65,0.0
199,辽阳市,41.26,123.23,2026-04-01,6.96,13.27,11.71,9.39,11.45,7.15,0.0
200,灯塔市,41.42,123.33,2026-04-01,6.96,13.27,11.71,9.39,11.45,7.15,0.0
201,辽阳县,41.2,123.1,2026-04-01,6.96,13.27,11.71,9.39,11.45,7.15,0.0
202,盘锦市,41.12,122.07,2026-04-01,5.41,13.35,11.97,8.1,11.39,5.41,0.0
203,盘山县,41.24,121.99,2026-04-01,5.41,13.35,11.97,8.1,11.39,5.41,0.0
204,铁岭市,42.22,123.72,2026-04-01,4.46,11.65,10.33,8.58,9.41,4.81,0.0
205,调兵山市,42.47,123.55,2026-04-01,3.14,11.31,9.21,9.41,8.73,3.14,0.0
206,开原市,42.54,124.03,2026-04-01,4.19,11.24,9.46,8.19,8.55,4.19,0.0
207,铁岭县,42.22,123.72,2026-04-01,4.46,11.65,10.33,8.58,9.41,4.81,0.0
208,西丰县,42.74,124.72,2026-04-01,2.87,9.73,8.6,6.46,7.05,3.39,0.0
209,昌图县,42.78,124.1,2026-04-01,3.43,10.85,8.51,8.33,8.51,3.43,0.0
210,朝阳市,41.54,120.45,2026-04-01,4.11,12.29,10.23,9.06,10.22,4.11,0.0
211,北票市,41.8,120.77,2026-04-01,3.74,11.84,10.0,8.6,9.52,3.74,0.0
212,凌源市,41.24,119.4,2026-04-01,1.55,10.6,8.71,7.19,8.5,1.55,0.0
213,朝阳县,41.57,120.45,2026-04-01,4.11,12.29,10.23,9.06,10.22,4.11,0.0
214,建平县,41.4,119.64,2026-04-01,2.62,11.2,9.4,7.59,9.13,2.62,0.0
215,喀喇沁左翼蒙古族自治县,41.12,119.74,2026-04-01,2.29,11.07,9.23,6.59,8.66,2.29,0.26
216,葫芦岛市,40.56,120.38,2026-04-01,6.51,14.28,13.6,7.18,10.66,6.54,0.0
217,兴城市,40.61,120.73,2026-04-01,6.11,11.03,10.88,6.94,9.25,6.11,0.0
218,绥中县,40.32,120.34,2026-04-01,6.51,14.28,13.6,7.18,10.66,6.54,0.0
219,建昌县,40.81,119.8,2026-04-01,3.67,12.31,10.68,6.6,9.74,3.67,0.13
1,哈尔滨市,45.58,126.29,2026-04-02,-0.56,14.76,12.7,1.76,11.82,0.03,0.0
2,尚志市,45.21,127.96,2026-04-02,-1.1,12.72,11.16,0.99,9.35,-0.18,0.0
3,五常市,44.92,127.16,2026-04-02,-0.96,13.14,11.67,1.38,10.14,-0.41,0.0
4,巴彦县,46.08,127.4,2026-04-02,-0.55,13.83,11.43,1.67,10.27,0.12,0.0
5,宾县,45.75,127.48,2026-04-02,-0.19,13.55,12.06,1.5,10.71,0.51,0.0
6,方正县,45.83,128.82,2026-04-02,-1.12,12.38,11.7,0.43,8.35,0.28,0.0
7,木兰县,45.95,128.04,2026-04-02,-1.42,13.1,11.09,0.71,9.9,-0.63,0.0
8,通河县,45.97,128.75,2026-04-02,-2.01,12.23,10.22,-0.1,8.28,-0.83,0.0
9,延寿县,45.45,128.33,2026-04-02,-1.06,12.49,11.0,1.1,9.42,-0.11,0.0
10,依兰县,46.31,129.56,2026-04-02,-1.05,12.65,10.39,1.72,9.24,0.12,0.0
11,齐齐哈尔市,47.35,123.84,2026-04-02,0.29,9.43,7.38,2.17,7.19,1.67,0.14
12,讷河市,48.46,124.88,2026-04-02,-0.86,5.6,4.89,0.44,2.21,0.1,0.0
13,拜泉县,47.6,126.09,2026-04-02,-0.84,6.84,6.15,0.99,3.93,-0.1,0.28
14,富裕县,47.77,124.47,2026-04-02,-1.11,8.89,7.04,1.42,5.59,0.02,0.0
15,甘南县,47.91,123.5,2026-04-02,0.1,9.71,8.15,2.23,6.73,1.6,0.0
16,克东县,48.04,126.25,2026-04-02,-1.17,5.92,5.25,0.39,1.54,-0.8,0.11
17,克山县,48.04,125.88,2026-04-02,-1.89,5.54,4.5,0.09,0.99,-1.52,0.0
18,龙江县,47.33,123.2,2026-04-02,0.59,10.08,8.0,1.7,7.82,1.8,0.0
19,泰来县,46.39,123.41,2026-04-02,2.44,9.18,9.1,4.36,6.37,3.4,0.0
20,依安县,47.89,125.3,2026-04-02,-1.46,7.45,5.12,0.6,4.04,-0.77,0.0
21,牡丹江市,44.57,129.55,2026-04-02,-1.09,11.71,10.27,1.43,9.3,0.09,0.0
22,东宁市,44.09,131.12,2026-04-02,3.9,13.08,12.31,5.48,10.15,4.68,0.0
23,海林市,44.59,129.37,2026-04-02,-1.32,11.55,10.24,0.89,8.91,-0.12,0.0
24,穆棱市,44.92,130.52,2026-04-02,-0.53,11.4,9.74,1.46,8.85,0.96,0.0
25,宁安市,44.34,129.48,2026-04-02,-1.23,11.28,10.49,1.64,8.72,0.1,0.0
26,绥芬河市,44.41,131.16,2026-04-02,0.44,10.86,10.43,2.78,6.21,1.0,0.0
27,林口县,45.28,130.27,2026-04-02,-1.7,11.41,9.72,0.63,8.01,-0.07,0.0
28,佳木斯市,46.8,130.31,2026-04-02,-0.17,12.5,10.77,1.9,9.83,0.77,0.0
29,抚远市,48.36,134.3,2026-04-02,-0.9,8.38,7.37,-0.28,5.07,0.52,0.0
30,富锦市,46.33,132.19,2026-04-02,-0.48,11.68,9.42,2.48,8.75,1.07,0.0
31,同江市,47.64,132.5,2026-04-02,-1.49,10.12,8.59,-0.84,6.44,-0.14,0.0
32,桦川县,46.24,130.55,2026-04-02,-0.76,12.64,10.16,1.49,9.28,0.24,0.0
33,桦南县,46.24,130.55,2026-04-02,-0.76,12.64,10.16,1.49,9.28,0.24,0.0
34,汤原县,46.73,129.9,2026-04-02,-0.89,12.45,10.35,1.95,9.4,0.06,0.0
35,大庆市,46.58,125.1,2026-04-02,1.51,11.44,10.81,3.16,5.86,2.7,0.17
36,杜尔伯特蒙古族自治县,46.86,124.44,2026-04-02,0.94,6.85,6.85,2.38,4.7,2.24,0.29
37,林甸县,47.17,124.86,2026-04-02,0.19,7.14,7.13,2.31,5.16,2.03,0.1
38,肇源县,45.52,125.08,2026-04-02,0.68,14.89,12.56,2.08,7.15,1.05,0.0
39,肇州县,45.7,125.26,2026-04-02,0.54,14.58,12.3,1.93,6.29,0.87,0.0
40,鸡西市,45.3,125.1,2026-04-02,0.68,14.89,12.56,2.08,7.15,1.05,0.0
41,虎林市,45.76,132.93,2026-04-02,0.53,10.7,9.66,4.19,8.48,1.59,0.0
42,密山市,45.53,131.84,2026-04-02,-0.43,11.1,9.85,2.51,8.33,0.9,0.0
43,鸡东县,45.26,131.12,2026-04-02,-0.56,12.09,10.27,2.0,9.51,0.94,0.0
44,双鸭山市,46.64,131.15,2026-04-02,-0.9,12.04,10.67,0.87,8.32,0.68,0.0
45,宝清县,46.33,132.19,2026-04-02,-0.48,11.68,9.42,2.48,8.75,1.07,0.0
46,集贤县,46.73,131.13,2026-04-02,-0.63,12.33,10.75,1.03,9.01,0.9,0.0
47,饶河县,46.79,134.01,2026-04-02,-1.11,9.98,9.3,1.26,5.61,0.97,0.0
48,友谊县,46.77,131.8,2026-04-02,-0.44,12.55,10.13,1.78,9.56,0.89,0.0
49,伊春市,47.72,128.84,2026-04-02,-2.49,9.17,8.41,-2.17,2.68,-1.29,0.0
50,铁力市,46.98,128.02,2026-04-02,-1.08,11.21,9.55,-0.15,5.55,-0.33,0.0
51,大箐山县,47.14,129.28,2026-04-02,-2.33,11.26,10.78,-1.28,6.82,-0.7,0.0
52,丰林县,48.29,129.53,2026-04-02,-3.22,7.85,7.75,-3.03,2.59,-1.39,0.0
53,嘉荫县,48.89,130.39,2026-04-02,-2.13,9.84,9.13,-1.64,4.52,-1.06,0.11
54,南岔县,47.14,129.28,2026-04-02,-2.33,11.26,10.78,-1.28,6.82,-0.7,0.0
55,汤旺县,48.45,129.43,2026-04-02,-4.95,7.3,7.25,-4.7,1.01,-2.25,0.0
56,七台河市,45.77,131.0,2026-04-02,-0.9,12.72,10.42,1.24,9.22,0.51,0.0
57,勃利县,45.75,130.57,2026-04-02,-1.06,12.55,12.01,0.65,8.15,0.54,0.0
58,鹤岗市,47.35,130.29,2026-04-02,-2.25,11.12,9.27,-1.04,7.48,-0.93,0.0
59,萝北县,47.57,130.84,2026-04-02,-1.06,11.48,9.52,-0.42,7.47,-0.06,0.0
60,绥滨县,47.29,131.85,2026-04-02,-0.93,11.85,9.59,0.39,8.64,0.29,0.0
61,黑河市,50.24,127.52,2026-04-02,-8.68,5.32,5.32,-4.68,3.32,-8.68,0.0
62,北安市,48.24,126.49,2026-04-02,-1.17,5.92,5.25,0.39,1.54,-0.8,0.11
63,嫩江市,49.18,125.22,2026-04-02,-3.67,1.65,1.41,-2.1,-1.01,-3.29,0.0
64,五大连池市,48.51,126.19,2026-04-02,-1.22,4.27,4.27,-0.14,0.38,-0.69,0.0
65,孙吴县,49.43,127.33,2026-04-02,-3.02,4.2,4.2,-2.87,-0.37,-2.63,0.0
66,逊克县,49.57,128.48,2026-04-02,-3.11,5.43,5.22,-3.02,1.01,-1.18,0.0
67,绥化市,46.65,126.96,2026-04-02,-0.58,12.44,10.5,1.42,6.29,-0.27,0.0
68,安达市,46.45,125.3,2026-04-02,1.17,12.18,11.5,2.98,6.49,2.29,0.0
69,海伦市,47.46,126.97,2026-04-02,-0.99,8.87,8.87,0.29,4.54,0.0,0.1
70,肇东市,46.06,125.98,2026-04-02,0.17,13.4,11.68,1.89,6.19,0.8,0.0
71,兰西县,46.26,126.29,2026-04-02,-0.08,12.7,11.14,1.77,6.31,0.43,0.0
72,明水县,47.17,125.91,2026-04-02,-0.37,7.79,7.27,0.73,3.6,0.43,0.12
73,青冈县,46.69,126.1,2026-04-02,0.59,11.93,10.74,1.76,5.77,0.85,0.0
74,庆安县,46.88,127.5,2026-04-02,-1.43,11.72,10.07,0.47,6.78,-0.88,0.0
75,绥棱县,47.24,127.11,2026-04-02,-0.2,9.83,9.58,0.94,5.87,0.13,0.0
76,望奎县,46.83,126.48,2026-04-02,-0.06,11.64,10.65,1.55,6.03,0.38,0.0
77,加格达奇区,52.5,123.9,2026-04-02,-13.94,-2.67,-3.82,-13.62,-7.71,-10.58,0.44
78,漠河市,52.97,122.54,2026-04-02,-10.56,-0.77,-1.52,-8.42,-4.31,-9.98,0.0
79,呼玛县,51.73,126.65,2026-04-02,-9.67,0.44,-0.39,-7.45,-3.61,-7.95,0.0
80,塔河县,52.33,124.7,2026-04-02,-14.15,-1.78,-2.52,-11.38,-6.82,-12.17,0.1
81,长春市,43.88,125.31,2026-04-02,0.15,15.16,12.66,1.81,12.93,0.6,0.0
82,公主岭市,43.5,124.82,2026-04-02,0.45,15.14,13.16,1.95,11.55,0.77,0.0
83,德惠市,44.53,125.7,2026-04-02,-0.18,15.12,12.45,2.05,12.03,0.21,0.0
84,榆树市,44.82,126.55,2026-04-02,-0.44,13.93,11.8,1.61,10.82,0.07,0.0
85,农安县,44.43,125.18,2026-04-02,-0.38,14.83,12.57,1.6,11.44,-0.15,0.0
86,吉林市,43.83,126.55,2026-04-02,-0.53,14.1,12.22,1.74,11.0,-0.01,0.0
87,蛟河市,43.72,127.34,2026-04-02,-1.41,12.66,10.76,0.74,8.94,-0.47,0.0
88,桦甸市,42.97,126.74,2026-04-02,-0.44,13.55,11.47,2.26,10.52,0.28,0.0
89,舒兰市,44.41,126.96,2026-04-02,-0.83,13.13,11.7,0.89,9.62,-0.18,0.0
90,磐石市,42.94,126.06,2026-04-02,-0.28,13.99,11.08,1.32,10.91,0.35,0.0
91,永吉县,43.67,126.5,2026-04-02,-0.53,14.1,12.22,1.74,11.0,-0.01,0.0
92,四平市,43.16,124.35,2026-04-02,1.37,15.39,13.57,2.26,12.09,1.45,0.0
93,双辽市,43.52,123.5,2026-04-02,0.43,16.57,13.9,2.28,13.24,0.56,0.0
94,梨树县,43.3,124.33,2026-04-02,1.22,15.45,13.63,2.1,12.22,1.28,0.0
95,伊通满族自治县,43.34,125.3,2026-04-02,-0.25,14.67,12.12,1.09,10.83,0.29,0.0
96,辽源市,42.88,125.14,2026-04-02,-0.26,14.83,12.99,1.35,10.82,0.16,0.0
97,东丰县,42.67,125.53,2026-04-02,-0.32,14.31,11.57,1.23,10.3,0.23,0.0
98,东辽县,42.92,124.99,2026-04-02,-0.26,14.83,12.99,1.35,10.82,0.16,0.0
99,通化市,41.73,125.94,2026-04-02,1.6,15.18,12.39,3.55,11.94,1.97,0.0
100,梅河口市,42.53,125.68,2026-04-02,-0.14,15.01,11.84,1.6,10.98,0.31,0.0
101,集安市,41.12,126.19,2026-04-02,-0.12,12.54,10.64,1.7,7.7,0.41,0.0
102,通化县,41.68,125.76,2026-04-02,-1.06,13.32,11.3,0.84,9.16,-0.7,0.0
103,辉南县,42.68,126.04,2026-04-02,-0.14,14.63,11.46,1.96,11.24,0.41,0.0
104,柳河县,42.28,125.74,2026-04-02,-0.04,14.76,12.61,1.57,10.87,0.52,0.0
105,白山市,41.93,126.42,2026-04-02,0.82,13.69,11.98,2.61,9.44,1.63,0.0
106,临江市,41.81,126.92,2026-04-02,1.24,12.87,12.14,2.48,8.82,1.46,0.0
107,抚松县,42.33,127.28,2026-04-02,-0.47,12.29,11.72,0.31,6.78,0.34,0.0
108,靖宇县,42.38,126.81,2026-04-02,-0.49,12.83,12.54,2.04,8.54,0.39,0.0
109,长白朝鲜族自治县,41.41,128.2,2026-04-02,1.99,12.81,12.59,3.4,8.17,2.9,0.0
110,松原市,45.14,124.82,2026-04-02,0.66,15.29,13.0,2.08,10.88,1.03,0.0
111,扶余市,44.98,126.05,2026-04-02,0.04,14.94,12.43,2.19,12.25,0.45,0.0
112,长岭县,44.27,123.96,2026-04-02,-0.03,15.2,13.11,1.82,12.23,0.21,0.0
113,乾安县,45.0,124.03,2026-04-02,1.53,15.3,13.25,2.92,8.15,1.9,0.0
114,前郭尔罗斯蒙古族自治县,45.11,124.82,2026-04-02,0.66,15.29,13.0,2.08,10.88,1.03,0.0
115,白城市,41.93,126.42,2026-04-02,0.82,13.69,11.98,2.61,9.44,1.63,0.0
116,洮南市,45.36,122.79,2026-04-02,2.56,14.05,12.67,3.97,8.53,3.1,0.0
117,大安市,45.51,124.29,2026-04-02,1.79,14.17,12.77,3.52,6.93,2.09,0.0
118,镇赉县,45.85,123.2,2026-04-02,3.12,12.38,12.38,4.08,7.23,3.41,0.0
119,通榆县,44.8,123.09,2026-04-02,1.46,16.23,13.21,2.84,9.32,1.89,0.0
120,延吉市,42.89,129.5,2026-04-02,3.86,15.09,13.2,5.05,11.57,4.45,0.0
121,图们市,42.97,129.84,2026-04-02,3.94,15.63,14.11,4.94,12.01,4.76,0.0
122,敦化市,43.37,128.23,2026-04-02,-2.15,12.06,10.44,0.77,7.31,-1.21,0.0
123,珲春市,42.86,130.36,2026-04-02,5.06,16.34,14.58,5.74,10.47,5.83,0.0
124,龙井市,42.76,129.42,2026-04-02,4.08,14.99,12.69,4.85,11.54,4.57,0.0
125,和龙市,42.54,129.0,2026-04-02,2.7,13.66,13.26,3.37,8.3,3.55,0.0
126,汪清县,43.31,129.76,2026-04-02,1.67,13.52,11.95,3.67,9.8,2.27,0.0
127,安图县,43.11,128.9,2026-04-02,1.79,13.56,12.86,2.84,8.96,2.1,0.0
128,海拉尔区,49.23,119.82,2026-04-02,-7.39,1.08,-0.05,-5.38,-2.1,-7.39,0.0
129,满洲里市,49.58,117.43,2026-04-02,-7.12,3.29,1.5,-2.64,1.42,-7.12,0.0
130,牙克石市,49.28,120.73,2026-04-02,-12.64,-2.05,-3.13,-8.03,-5.8,-12.64,0.0
131,扎兰屯市,48.01,122.75,2026-04-02,-0.55,8.52,7.42,2.43,3.9,0.65,0.0
132,额尔古纳市,50.24,120.18,2026-04-02,-18.13,-2.59,-4.87,-15.83,-7.97,-18.13,0.0
133,根河市,50.78,121.52,2026-04-02,-12.72,0.04,-0.73,-10.76,-3.55,-12.28,0.0
134,阿荣旗,48.12,123.45,2026-04-02,0.1,9.71,8.15,2.23,6.73,1.6,0.0
135,陈巴尔虎旗,49.33,119.43,2026-04-02,-7.39,1.08,-0.05,-5.38,-2.1,-7.39,0.0
136,新巴尔虎左旗,48.22,118.27,2026-04-02,-4.23,3.99,2.75,-1.87,2.43,-4.23,0.0
137,新巴尔虎右旗,48.67,116.82,2026-04-02,-4.93,3.72,2.4,-2.09,1.81,-4.93,0.0
138,莫力达瓦达斡尔族自治旗,48.48,124.51,2026-04-02,-1.03,5.02,4.48,0.01,1.63,-0.18,0.0
139,鄂伦春自治旗,50.59,123.72,2026-04-02,-8.28,2.36,1.26,-7.31,-2.0,-7.96,0.0
140,鄂温克族自治旗,49.15,119.75,2026-04-02,-7.39,1.08,-0.05,-5.38,-2.1,-7.39,0.0
141,乌兰浩特市,46.07,122.09,2026-04-02,1.48,10.02,8.48,3.75,7.17,2.79,0.0
142,阿尔山市,47.17,119.93,2026-04-02,-3.65,0.53,0.28,-0.74,-2.4,-2.29,0.0
143,突泉县,45.38,121.56,2026-04-02,2.25,13.71,12.13,2.75,8.91,2.25,0.0
144,科尔沁右翼前旗,46.08,121.95,2026-04-02,1.48,10.02,8.48,3.75,7.17,2.79,0.0
145,科尔沁右翼中旗,45.06,121.47,2026-04-02,2.25,13.71,12.13,2.75,8.91,2.25,0.0
146,扎赉特旗,46.72,122.89,2026-04-02,1.98,8.43,6.14,4.54,6.58,2.92,0.13
147,科尔沁区,43.65,122.24,2026-04-02,0.9,18.14,14.78,1.94,15.01,1.34,0.0
148,霍林郭勒市,45.53,119.66,2026-04-02,-1.21,7.51,7.26,0.55,4.49,-0.98,0.0
149,开鲁县,43.6,121.31,2026-04-02,0.72,18.71,16.3,1.5,14.44,1.85,0.0
150,科尔沁左翼中旗,44.12,123.31,2026-04-02,-0.15,16.19,13.4,1.75,13.57,0.5,0.0
151,科尔沁左翼后旗,42.96,122.36,2026-04-02,0.66,17.35,13.63,1.58,13.47,1.42,0.0
152,库伦旗,42.73,121.81,2026-04-02,0.93,18.32,14.53,1.59,14.92,2.22,0.0
153,奈曼旗,42.84,120.66,2026-04-02,1.53,19.14,15.8,2.05,15.1,4.61,0.0
154,扎鲁特旗,44.56,120.91,2026-04-02,0.27,15.67,13.77,0.61,10.86,1.45,0.0
155,赤峰市,42.26,118.89,2026-04-02,2.83,19.68,16.36,3.02,15.53,3.33,0.0
156,林西县,43.61,118.06,2026-04-02,0.17,13.08,13.01,0.17,10.22,0.94,0.0
157,宁城县,41.6,119.34,2026-04-02,1.9,18.24,16.57,2.62,15.4,1.9,0.0
158,阿鲁科尔沁旗,43.88,120.09,2026-04-02,0.71,18.27,15.95,1.22,13.22,3.29,0.0
159,巴林左旗,43.98,119.38,2026-04-02,-0.23,14.68,14.61,-0.23,10.34,0.45,0.0
160,巴林右旗,43.53,118.67,2026-04-02,-0.38,14.07,14.07,-0.38,10.14,0.49,0.0
161,克什克腾旗,43.26,117.54,2026-04-02,-1.55,10.39,9.71,0.12,7.96,-1.55,0.29
162,翁牛特旗,42.94,119.02,2026-04-02,0.88,17.35,15.14,1.22,12.59,2.43,0.0
163,喀喇沁旗,41.93,118.7,2026-04-02,1.94,17.92,14.5,2.3,14.12,1.94,0.0
164,敖汉旗,42.29,119.92,2026-04-02,-0.05,16.24,11.7,0.41,13.09,1.93,0.0
165,沈阳市,41.79,123.45,2026-04-02,-3.99,17.01,14.01,4.01,14.01,-3.99,0.0
166,新民市,41.98,122.83,2026-04-02,2.45,16.69,14.55,3.89,13.81,2.63,0.0
167,康平县,42.5,123.43,2026-04-02,1.62,16.54,13.86,2.79,13.38,1.93,0.0
168,法库县,42.5,123.43,2026-04-02,1.62,16.54,13.86,2.79,13.38,1.93,0.0
169,大连市,38.92,121.64,2026-04-02,2.96,17.96,16.96,6.96,14.96,2.96,0.0
170,瓦房店市,39.62,122.0,2026-04-02,3.41,21.89,16.81,5.29,12.63,3.57,0.0
171,庄河市,39.68,122.96,2026-04-02,5.34,16.18,14.89,8.13,9.14,5.34,0.0
172,长海县,39.28,122.59,2026-04-02,4.13,20.14,16.7,6.71,12.75,4.17,0.0
173,鞍山市,41.10,122.99,2026-04-02,3.83,16.98,15.62,5.6,13.02,4.13,0.0
174,海城市,40.85,122.75,2026-04-02,3.42,16.38,16.15,5.19,12.32,3.76,0.0
175,台安县,41.38,122.43,2026-04-02,2.83,16.75,15.59,4.75,13.34,3.18,0.0
176,岫岩满族自治县,40.29,123.28,2026-04-02,3.43,19.45,16.79,5.81,14.26,3.54,0.0
177,抚顺市,41.88,123.96,2026-04-02,2.77,16.84,14.75,4.65,13.26,2.92,0.0
178,抚顺县,41.88,123.91,2026-04-02,2.77,16.84,14.75,4.65,13.26,2.92,0.0
179,新宾满族自治县,41.73,125.03,2026-04-02,0.23,15.0,13.72,2.5,11.07,0.71,0.0
180,清原满族自治县,42.1,124.92,2026-04-02,-0.91,14.68,13.48,0.96,10.3,-0.28,0.0
181,本溪市,41.29,123.77,2026-04-02,3.79,17.16,15.68,5.73,13.49,4.0,0.0
182,本溪满族自治县,41.3,124.11,2026-04-02,2.48,16.72,15.93,4.37,12.3,2.88,0.0
183,桓仁满族自治县,41.26,125.35,2026-04-02,2.88,17.47,16.09,5.02,12.9,3.19,0.0
184,丹东市,40.00,124.35,2026-04-02,6.0,17.35,17.18,9.03,9.68,6.05,0.0
185,东港市,39.86,124.15,2026-04-02,6.0,17.35,17.18,9.03,9.68,6.05,0.0
186,凤城市,40.45,124.06,2026-04-02,4.61,18.17,15.91,7.44,12.2,4.61,0.0
187,宽甸满族自治县,40.73,124.78,2026-04-02,3.55,15.6,14.55,6.04,11.63,3.76,0.0
188,锦州市,41.09,121.12,2026-04-02,3.77,16.62,15.72,5.24,9.51,5.02,0.0
189,凌海市,41.16,121.35,2026-04-02,3.42,15.03,14.21,5.0,9.17,4.5,0.0
190,北镇市,41.6,121.8,2026-04-02,3.02,16.59,15.08,4.17,12.01,3.85,0.0
191,黑山县,41.67,122.12,2026-04-02,2.72,16.83,15.13,3.84,12.53,3.58,0.0
192,义县,41.53,121.23,2026-04-02,2.88,18.0,14.59,3.59,11.61,3.02,0.0
193,营口市,40.66,122.23,2026-04-02,3.72,9.34,7.55,5.25,7.2,3.72,0.0
194,盖州市,40.4,122.35,2026-04-02,3.52,14.73,14.73,5.23,11.5,3.75,0.0
195,大石桥市,40.63,122.51,2026-04-02,3.52,14.73,14.73,5.23,11.5,3.75,0.0
196,阜新市,42.02,121.67,2026-04-02,3.76,19.81,14.12,4.48,14.73,4.17,0.0
197,阜新蒙古族自治县,42.06,121.75,2026-04-02,4.05,19.49,13.7,4.66,14.62,4.54,0.0
198,彰武县,42.38,122.54,2026-04-02,2.05,17.41,14.49,3.3,13.8,2.59,0.0
199,辽阳市,41.26,123.23,2026-04-02,4.01,17.25,15.4,5.94,13.86,4.2,0.0
200,灯塔市,41.42,123.33,2026-04-02,4.01,17.25,15.4,5.94,13.86,4.2,0.0
201,辽阳县,41.2,123.1,2026-04-02,4.01,17.25,15.4,5.94,13.86,4.2,0.0
202,盘锦市,41.12,122.07,2026-04-02,3.49,15.25,14.59,4.93,10.84,3.86,0.0
203,盘山县,41.24,121.99,2026-04-02,3.49,15.25,14.59,4.93,10.84,3.86,0.0
204,铁岭市,42.22,123.72,2026-04-02,2.07,17.05,14.62,3.32,13.52,2.26,0.0
205,调兵山市,42.47,123.55,2026-04-02,1.62,16.54,13.86,2.79,13.38,1.93,0.0
206,开原市,42.54,124.03,2026-04-02,1.75,16.7,14.53,3.21,13.56,1.96,0.0
207,铁岭县,42.22,123.72,2026-04-02,2.07,17.05,14.62,3.32,13.52,2.26,0.0
208,西丰县,42.74,124.72,2026-04-02,-0.05,14.92,13.34,1.73,11.44,0.52,0.0
209,昌图县,42.78,124.1,2026-04-02,1.72,16.09,13.75,3.25,13.53,1.78,0.0
210,朝阳市,41.54,120.45,2026-04-02,3.9,22.08,17.39,4.7,18.93,4.42,0.0
211,北票市,41.8,120.77,2026-04-02,3.11,21.79,16.24,3.8,16.13,3.76,0.0
212,凌源市,41.24,119.4,2026-04-02,2.83,19.09,16.04,3.22,15.76,3.11,0.0
213,朝阳县,41.57,120.45,2026-04-02,3.9,22.08,17.39,4.7,18.93,4.42,0.0
214,建平县,41.4,119.64,2026-04-02,3.05,20.3,17.28,3.65,17.06,4.28,0.0
215,喀喇沁左翼蒙古族自治县,41.12,119.74,2026-04-02,3.05,19.27,16.34,3.49,16.72,4.6,0.0
216,葫芦岛市,40.56,120.38,2026-04-02,4.76,15.53,14.38,5.46,8.51,5.43,0.0
217,兴城市,40.61,120.73,2026-04-02,4.5,14.06,12.67,5.29,8.44,5.42,0.0
218,绥中县,40.32,120.34,2026-04-02,4.76,15.53,14.38,5.46,8.51,5.43,0.0
219,建昌县,40.81,119.8,2026-04-02,3.37,19.52,16.2,4.07,16.71,4.65,0.0
1,哈尔滨市,45.58,126.29,2026-04-03,-0.08,6.6,5.02,3.63,0.03,3.14,12.81
2,尚志市,45.21,127.96,2026-04-03,-0.84,8.4,8.4,3.7,0.31,1.87,9.55
3,五常市,44.92,127.16,2026-04-03,0.07,9.92,9.7,4.44,0.16,2.89,12.53
4,巴彦县,46.08,127.4,2026-04-03,0.05,6.31,4.79,3.05,0.28,1.63,7.08
5,宾县,45.75,127.48,2026-04-03,-0.53,4.77,4.5,3.12,0.15,1.48,11.15
6,方正县,45.83,128.82,2026-04-03,0.13,9.62,9.62,4.14,0.95,2.31,6.96
7,木兰县,45.95,128.04,2026-04-03,-0.22,6.93,5.8,3.22,0.19,1.49,9.47
8,通河县,45.97,128.75,2026-04-03,-1.34,5.94,5.46,3.0,-0.53,1.46,8.03
9,延寿县,45.45,128.33,2026-04-03,-1.13,7.16,7.16,3.29,-0.07,1.68,10.29
10,依兰县,46.31,129.56,2026-04-03,-0.67,7.38,7.01,4.6,0.24,2.1,9.13
11,齐齐哈尔市,47.35,123.84,2026-04-03,-0.94,6.49,5.51,0.28,5.09,-0.23,0.0
12,讷河市,48.46,124.88,2026-04-03,-1.08,5.49,4.87,-0.8,3.41,-0.61,0.0
13,拜泉县,47.6,126.09,2026-04-03,-2.03,5.09,4.5,-1.13,3.71,-1.21,0.0
14,富裕县,47.77,124.47,2026-04-03,-1.43,6.66,5.88,0.0,5.0,-0.82,0.0
15,甘南县,47.91,123.5,2026-04-03,-1.16,7.07,6.46,-0.24,5.05,-0.54,0.0
16,克东县,48.04,126.25,2026-04-03,-1.46,4.94,4.84,-1.17,2.16,-0.91,0.0
17,克山县,48.04,125.88,2026-04-03,-1.99,4.3,4.06,-1.6,1.99,-1.55,0.0
18,龙江县,47.33,123.2,2026-04-03,-0.75,6.29,5.03,-0.12,4.79,0.27,0.0
19,泰来县,46.39,123.41,2026-04-03,0.06,4.5,3.92,1.73,3.04,0.75,1.57
20,依安县,47.89,125.3,2026-04-03,-2.4,5.46,4.83,-1.28,3.96,-1.4,0.0
21,牡丹江市,44.57,129.55,2026-04-03,1.7,16.72,12.65,4.93,8.84,3.92,1.91
22,东宁市,44.09,131.12,2026-04-03,3.13,18.66,17.73,5.31,13.01,4.58,0.0
23,海林市,44.59,129.37,2026-04-03,2.17,16.62,12.23,4.83,10.77,3.3,2.23
24,穆棱市,44.92,130.52,2026-04-03,2.26,15.82,12.83,4.95,6.81,3.62,0.47
25,宁安市,44.34,129.48,2026-04-03,2.77,18.41,15.59,4.3,11.43,3.65,1.05
26,绥芬河市,44.41,131.16,2026-04-03,1.11,15.39,13.79,2.19,10.06,2.75,0.0
27,林口县,45.28,130.27,2026-04-03,0.57,11.45,9.7,4.61,4.0,2.62,8.33
28,佳木斯市,46.8,130.31,2026-04-03,-0.47,7.33,7.13,4.84,1.55,2.01,6.53
29,抚远市,48.36,134.3,2026-04-03,0.99,6.56,6.56,2.14,3.45,2.56,0.29
30,富锦市,46.33,132.19,2026-04-03,0.66,9.29,9.29,4.76,5.3,3.26,5.13
31,同江市,47.64,132.5,2026-04-03,0.74,7.4,7.32,3.91,4.61,1.72,0.0
32,桦川县,46.24,130.55,2026-04-03,-0.21,8.24,8.24,5.17,0.8,3.17,7.31
33,桦南县,46.24,130.55,2026-04-03,-0.21,8.24,8.24,5.17,0.8,3.17,7.31
34,汤原县,46.73,129.9,2026-04-03,-0.62,6.86,6.86,4.68,0.44,1.84,9.63
35,大庆市,46.58,125.1,2026-04-03,-0.14,5.37,5.17,0.8,3.71,0.7,0.27
36,杜尔伯特蒙古族自治县,46.86,124.44,2026-04-03,-0.74,4.8,4.39,0.11,3.6,0.27,0.12
37,林甸县,47.17,124.86,2026-04-03,-1.3,5.61,5.53,-0.35,4.34,-0.37,0.0
38,肇源县,45.52,125.08,2026-04-03,-0.69,3.5,2.72,2.23,0.3,2.1,4.94
39,肇州县,45.7,125.26,2026-04-03,-1.05,2.77,2.62,1.68,0.41,2.15,3.89
40,鸡西市,45.3,125.1,2026-04-03,-0.69,3.5,2.72,2.23,0.3,2.1,4.94
41,虎林市,45.76,132.93,2026-04-03,1.89,11.05,10.87,4.43,7.88,3.18,0.0
42,密山市,45.53,131.84,2026-04-03,2.29,9.95,9.91,4.09,7.14,3.25,0.0
43,鸡东县,45.26,131.12,2026-04-03,2.31,12.35,12.25,4.75,7.8,4.17,0.0
44,双鸭山市,46.64,131.15,2026-04-03,-0.19,7.76,7.47,3.09,0.98,2.08,7.1
45,宝清县,46.33,132.19,2026-04-03,0.66,9.29,9.29,4.76,5.3,3.26,5.13
46,集贤县,46.73,131.13,2026-04-03,-0.13,7.8,7.53,3.44,1.43,1.86,5.67
47,饶河县,46.79,134.01,2026-04-03,0.44,10.98,10.42,3.02,5.57,2.37,0.41
48,友谊县,46.77,131.8,2026-04-03,0.18,8.74,8.73,4.62,4.1,3.02,6.43
49,伊春市,47.72,128.84,2026-04-03,-4.72,5.83,5.49,-2.57,2.41,-3.21,0.17
50,铁力市,46.98,128.02,2026-04-03,-1.1,6.83,6.83,-0.08,1.04,-0.31,0.52
51,大箐山县,47.14,129.28,2026-04-03,-2.51,7.22,6.68,0.67,2.74,-1.32,3.27
52,丰林县,48.29,129.53,2026-04-03,-4.42,4.76,4.54,-3.1,1.23,-2.89,0.0
53,嘉荫县,48.89,130.39,2026-04-03,-2.76,5.64,5.14,-0.82,2.61,-1.35,0.0
54,南岔县,47.14,129.28,2026-04-03,-2.51,7.22,6.68,0.67,2.74,-1.32,3.27
55,汤旺县,48.45,129.43,2026-04-03,-5.29,4.21,3.79,-3.55,0.16,-3.65,0.0
56,七台河市,45.77,131.0,2026-04-03,0.47,8.2,8.13,5.09,3.28,2.33,5.9
57,勃利县,45.75,130.57,2026-04-03,0.41,7.51,7.51,4.99,1.72,2.44,10.72
58,鹤岗市,47.35,130.29,2026-04-03,-1.73,5.9,5.87,1.6,1.81,-0.63,2.12
59,萝北县,47.57,130.84,2026-04-03,-0.64,6.61,6.61,3.0,3.44,0.28,1.01
60,绥滨县,47.29,131.85,2026-04-03,1.41,7.95,7.55,3.75,4.21,1.63,1.58
61,黑河市,50.24,127.52,2026-04-03,-6.68,5.32,4.32,-4.68,3.32,-6.68,0.0
62,北安市,48.24,126.49,2026-04-03,-1.46,4.94,4.84,-1.17,2.16,-0.91,0.0
63,嫩江市,49.18,125.22,2026-04-03,-3.7,4.12,2.81,-2.47,1.03,-3.36,0.0
64,五大连池市,48.51,126.19,2026-04-03,-1.37,4.14,3.66,-1.03,1.7,-1.12,0.0
65,孙吴县,49.43,127.33,2026-04-03,-2.64,2.69,2.67,-2.42,-0.28,-2.17,0.0
66,逊克县,49.57,128.48,2026-04-03,-1.84,4.74,4.43,-1.57,2.69,-1.03,0.0
67,绥化市,46.65,126.96,2026-04-03,-1.48,5.93,5.93,0.11,2.08,-0.51,0.75
68,安达市,46.45,125.3,2026-04-03,-0.49,5.11,4.75,0.51,3.47,0.67,0.29
69,海伦市,47.46,126.97,2026-04-03,-2.58,5.35,5.35,-1.43,3.37,-1.59,0.0
70,肇东市,46.06,125.98,2026-04-03,-0.35,4.39,3.67,1.24,1.06,0.89,2.94
71,兰西县,46.26,126.29,2026-04-03,-0.93,4.85,4.36,0.76,0.91,0.15,1.67
72,明水县,47.17,125.91,2026-04-03,-1.78,4.62,4.16,-0.8,3.15,-1.23,0.0
73,青冈县,46.69,126.1,2026-04-03,-1.35,5.31,5.31,-0.19,3.51,-1.13,0.67
74,庆安县,46.88,127.5,2026-04-03,-1.39,6.18,6.18,0.02,1.02,-0.57,0.94
75,绥棱县,47.24,127.11,2026-04-03,-2.35,5.6,5.42,-0.58,3.55,-1.46,0.1
76,望奎县,46.83,126.48,2026-04-03,-1.73,5.89,5.89,-0.28,3.87,-0.89,0.25
77,加格达奇区,52.5,123.9,2026-04-03,-14.72,0.93,0.0,-14.24,-4.48,-13.24,0.0
78,漠河市,52.97,122.54,2026-04-03,-10.51,2.69,1.65,-9.35,-1.95,-9.68,0.0
79,呼玛县,51.73,126.65,2026-04-03,-7.1,3.26,3.01,-6.01,-1.51,-5.69,0.0
80,塔河县,52.33,124.7,2026-04-03,-13.83,1.91,0.72,-13.18,-3.93,-12.05,0.0
81,长春市,43.88,125.31,2026-04-03,-0.09,13.07,13.07,5.9,1.26,4.55,26.95
82,公主岭市,43.5,124.82,2026-04-03,0.31,14.09,13.58,5.94,4.01,5.96,21.62
83,德惠市,44.53,125.7,2026-04-03,-0.14,8.68,6.26,4.58,0.08,3.06,21.94
84,榆树市,44.82,126.55,2026-04-03,-0.13,9.31,8.27,4.62,0.02,2.7,22.89
85,农安县,44.43,125.18,2026-04-03,-1.32,6.11,1.58,2.75,-0.55,2.77,16.51
86,吉林市,43.83,126.55,2026-04-03,1.45,15.59,15.02,6.67,3.98,4.93,11.44
87,蛟河市,43.72,127.34,2026-04-03,2.96,18.01,15.95,4.53,11.69,3.32,0.3
88,桦甸市,42.97,126.74,2026-04-03,4.84,19.51,19.08,6.23,14.81,4.98,0.1
89,舒兰市,44.41,126.96,2026-04-03,0.13,13.84,13.84,6.13,1.09,3.53,21.06
90,磐石市,42.94,126.06,2026-04-03,4.73,17.69,16.43,6.56,13.7,5.05,0.41
91,永吉县,43.67,126.5,2026-04-03,1.45,15.59,15.02,6.67,3.98,4.93,11.44
92,四平市,43.16,124.35,2026-04-03,1.06,14.98,12.68,6.87,8.19,7.37,27.33
93,双辽市,43.52,123.5,2026-04-03,0.13,10.62,7.71,4.76,1.15,5.69,14.31
94,梨树县,43.3,124.33,2026-04-03,0.94,14.2,11.48,6.41,5.71,7.04,22.66
95,伊通满族自治县,43.34,125.3,2026-04-03,0.69,16.8,16.8,6.54,13.37,5.68,10.16
96,辽源市,42.88,125.14,2026-04-03,1.01,17.33,17.33,6.49,12.24,6.1,5.62
97,东丰县,42.67,125.53,2026-04-03,5.14,17.01,17.01,6.35,13.11,5.18,0.5
98,东辽县,42.92,124.99,2026-04-03,1.01,17.33,17.33,6.49,12.24,6.1,5.62
99,通化市,41.73,125.94,2026-04-03,4.04,17.14,16.45,5.74,13.13,4.48,0.0
100,梅河口市,42.53,125.68,2026-04-03,5.26,17.27,17.12,6.75,13.8,5.43,1.16
101,集安市,41.12,126.19,2026-04-03,0.22,13.38,13.38,2.5,9.81,0.81,0.0
102,通化县,41.68,125.76,2026-04-03,1.05,13.5,13.37,3.49,9.9,1.64,0.0
103,辉南县,42.68,126.04,2026-04-03,5.05,17.21,17.21,6.73,14.22,5.4,0.49
104,柳河县,42.28,125.74,2026-04-03,4.43,17.29,15.79,6.03,13.02,5.1,1.13
105,白山市,41.93,126.42,2026-04-03,2.77,17.02,17.02,4.61,12.54,3.19,0.13
106,临江市,41.81,126.92,2026-04-03,1.54,16.24,16.21,3.62,11.39,2.21,0.0
107,抚松县,42.33,127.28,2026-04-03,0.9,17.24,16.64,2.21,10.82,1.98,0.0
108,靖宇县,42.38,126.81,2026-04-03,3.41,19.35,18.09,4.58,13.91,3.95,0.0
109,长白朝鲜族自治县,41.41,128.2,2026-04-03,1.73,18.17,17.53,3.48,11.56,2.93,0.0
110,松原市,45.14,124.82,2026-04-03,-1.82,4.6,0.39,2.49,-0.05,2.54,12.37
111,扶余市,44.98,126.05,2026-04-03,0.15,8.57,7.05,4.98,0.18,2.9,19.29
112,长岭县,44.27,123.96,2026-04-03,-2.48,6.43,0.64,5.56,2.22,3.41,14.17
113,乾安县,45.0,124.03,2026-04-03,-1.06,2.86,0.54,2.86,0.75,2.5,6.16
114,前郭尔罗斯蒙古族自治县,45.11,124.82,2026-04-03,-1.82,4.6,0.39,2.49,-0.05,2.54,12.37
115,白城市,41.93,126.42,2026-04-03,2.77,17.02,17.02,4.61,12.54,3.19,0.13
116,洮南市,45.36,122.79,2026-04-03,-2.0,2.91,1.78,2.91,2.36,1.54,6.58
117,大安市,45.51,124.29,2026-04-03,-0.32,2.39,2.05,2.39,1.23,1.71,5.68
118,镇赉县,45.85,123.2,2026-04-03,-0.16,3.95,1.78,2.01,3.18,0.58,4.5
119,通榆县,44.8,123.09,2026-04-03,-2.51,3.37,0.24,3.13,0.74,2.13,10.3
120,延吉市,42.89,129.5,2026-04-03,4.21,22.48,19.04,6.01,17.04,5.4,1.46
121,图们市,42.97,129.84,2026-04-03,3.34,20.71,18.48,5.5,14.27,4.63,0.72
122,敦化市,43.37,128.23,2026-04-03,2.4,18.62,16.71,3.77,11.99,3.18,0.0
123,珲春市,42.86,130.36,2026-04-03,3.41,17.6,17.6,5.05,9.67,4.79,0.0
124,龙井市,42.76,129.42,2026-04-03,4.6,22.83,19.8,6.04,16.74,5.64,0.49
125,和龙市,42.54,129.0,2026-04-03,3.57,20.75,19.88,4.25,14.67,4.86,0.17
126,汪清县,43.31,129.76,2026-04-03,2.51,18.23,14.6,4.13,11.6,3.74,1.15
127,安图县,43.11,128.9,2026-04-03,2.29,20.66,18.27,3.51,14.5,3.66,0.24
128,海拉尔区,49.23,119.82,2026-04-03,-6.95,3.77,1.3,-5.45,1.05,-6.95,0.0
129,满洲里市,49.58,117.43,2026-04-03,-2.48,5.98,4.71,-1.83,3.94,-2.48,0.0
130,牙克石市,49.28,120.73,2026-04-03,-11.57,0.19,-1.22,-10.84,-3.31,-10.8,0.0
131,扎兰屯市,48.01,122.75,2026-04-03,-1.98,6.42,5.18,-0.87,4.78,-0.97,0.0
132,额尔古纳市,50.24,120.18,2026-04-03,-15.71,-0.4,-2.38,-14.72,-5.82,-14.01,0.0
133,根河市,50.78,121.52,2026-04-03,-10.8,2.46,1.34,-9.77,-1.81,-10.12,0.0
134,阿荣旗,48.12,123.45,2026-04-03,-1.16,7.07,6.46,-0.24,5.05,-0.54,0.0
135,陈巴尔虎旗,49.33,119.43,2026-04-03,-6.95,3.77,1.3,-5.45,1.05,-6.95,0.0
136,新巴尔虎左旗,48.22,118.27,2026-04-03,-1.93,5.59,4.38,-1.72,4.52,-1.51,0.0
137,新巴尔虎右旗,48.67,116.82,2026-04-03,-1.09,5.32,4.53,-0.58,4.45,-0.55,0.0
138,莫力达瓦达斡尔族自治旗,48.48,124.51,2026-04-03,-1.58,5.03,4.39,-1.04,2.88,-0.91,0.0
139,鄂伦春自治旗,50.59,123.72,2026-04-03,-7.8,4.13,3.33,-6.5,-0.91,-7.01,0.0
140,鄂温克族自治旗,49.15,119.75,2026-04-03,-6.95,3.77,1.3,-5.45,1.05,-6.95,0.0
141,乌兰浩特市,46.07,122.09,2026-04-03,-3.48,3.16,1.37,0.7,1.51,0.56,4.67
142,阿尔山市,47.17,119.93,2026-04-03,-3.82,-0.09,-1.85,-3.32,-1.87,-3.38,0.46
143,突泉县,45.38,121.56,2026-04-03,-2.12,2.63,0.66,2.19,1.66,1.02,2.3
144,科尔沁右翼前旗,46.08,121.95,2026-04-03,-3.48,3.16,1.37,0.7,1.51,0.56,4.67
145,科尔沁右翼中旗,45.06,121.47,2026-04-03,-2.12,2.63,0.66,2.19,1.66,1.02,2.3
146,扎赉特旗,46.72,122.89,2026-04-03,0.06,5.07,4.12,0.88,3.45,0.73,0.97
147,科尔沁区,43.65,122.24,2026-04-03,-0.98,7.77,5.39,4.21,0.6,4.83,6.22
148,霍林郭勒市,45.53,119.66,2026-04-03,-10.72,1.05,-4.05,1.05,-4.19,-3.84,6.85
149,开鲁县,43.6,121.31,2026-04-03,-1.47,6.42,3.36,4.43,0.18,4.69,4.62
150,科尔沁左翼中旗,44.12,123.31,2026-04-03,-2.46,6.33,0.45,3.92,0.02,4.25,11.23
151,科尔沁左翼后旗,42.96,122.36,2026-04-03,-0.36,9.97,8.39,4.42,0.76,6.87,12.4
152,库伦旗,42.73,121.81,2026-04-03,0.32,11.64,8.96,6.62,1.94,6.62,12.58
153,奈曼旗,42.84,120.66,2026-04-03,-0.47,10.56,7.16,6.6,0.89,8.54,2.69
154,扎鲁特旗,44.56,120.91,2026-04-03,-1.78,3.03,1.35,3.03,1.09,1.27,2.09
155,赤峰市,42.26,118.89,2026-04-03,1.23,14.09,10.1,8.68,4.5,8.14,0.0
156,林西县,43.61,118.06,2026-04-03,-1.48,6.92,6.28,5.66,1.76,1.56,0.28
157,宁城县,41.6,119.34,2026-04-03,1.36,17.7,15.41,9.27,4.86,10.48,1.06
158,阿鲁科尔沁旗,43.88,120.09,2026-04-03,-0.86,6.17,6.17,5.02,3.37,2.3,0.0
159,巴林左旗,43.98,119.38,2026-04-03,-1.56,5.08,4.5,5.08,2.55,0.8,0.16
160,巴林右旗,43.53,118.67,2026-04-03,-1.18,6.3,5.3,5.43,3.59,1.5,0.0
161,克什克腾旗,43.26,117.54,2026-04-03,-3.28,8.3,5.84,4.5,0.47,2.18,0.0
162,翁牛特旗,42.94,119.02,2026-04-03,0.75,7.11,5.96,6.81,3.51,2.9,0.0
163,喀喇沁旗,41.93,118.7,2026-04-03,0.08,16.6,14.93,7.65,2.67,8.1,0.0
164,敖汉旗,42.29,119.92,2026-04-03,-2.36,11.13,11.13,6.79,-0.42,7.45,2.7
165,沈阳市,41.79,123.45,2026-04-03,1.01,14.01,13.01,9.01,11.01,9.01,7.86
166,新民市,41.98,122.83,2026-04-03,3.11,17.47,17.47,7.12,8.88,8.93,23.46
167,康平县,42.5,123.43,2026-04-03,2.0,14.52,13.61,7.08,8.2,7.47,22.05
168,法库县,42.5,123.43,2026-04-03,2.0,14.52,13.61,7.08,8.2,7.47,22.05
169,大连市,38.92,121.64,2026-04-03,6.96,19.96,18.96,11.96,15.96,7.96,4.45
170,瓦房店市,39.62,122.0,2026-04-03,4.19,20.73,17.98,7.39,12.31,6.22,4.86
171,庄河市,39.68,122.96,2026-04-03,5.65,12.51,10.56,7.01,9.32,5.69,0.38
172,长海县,39.28,122.59,2026-04-03,5.5,13.84,13.84,6.98,10.1,5.5,4.04
173,鞍山市,41.10,122.99,2026-04-03,3.45,21.28,16.36,10.11,12.59,9.54,8.63
174,海城市,40.85,122.75,2026-04-03,4.05,21.01,16.77,9.94,12.57,8.78,11.07
175,台安县,41.38,122.43,2026-04-03,3.3,18.99,18.99,8.27,13.22,9.29,9.63
176,岫岩满族自治县,40.29,123.28,2026-04-03,5.17,15.08,14.13,6.54,10.83,5.23,0.7
177,抚顺市,41.88,123.96,2026-04-03,3.02,17.7,14.03,8.25,13.59,7.27,6.18
178,抚顺县,41.88,123.91,2026-04-03,3.02,17.7,14.03,8.25,13.59,7.27,6.18
179,新宾满族自治县,41.73,125.03,2026-04-03,3.45,15.62,15.34,5.37,12.54,3.58,0.2
180,清原满族自治县,42.1,124.92,2026-04-03,4.45,15.88,15.64,5.1,12.66,4.87,1.96
181,本溪市,41.29,123.77,2026-04-03,4.89,17.32,15.29,8.81,14.28,6.92,1.24
182,本溪满族自治县,41.3,124.11,2026-04-03,5.81,15.12,15.12,7.32,11.94,6.11,1.16
183,桓仁满族自治县,41.26,125.35,2026-04-03,4.62,17.01,16.42,6.41,12.85,5.19,0.0
184,丹东市,40.00,124.35,2026-04-03,5.99,13.85,11.71,6.33,9.51,7.89,1.07
185,东港市,39.86,124.15,2026-04-03,5.99,13.85,11.71,6.33,9.51,7.89,1.07
186,凤城市,40.45,124.06,2026-04-03,5.51,14.42,13.25,6.14,10.74,5.95,1.27
187,宽甸满族自治县,40.73,124.78,2026-04-03,4.14,15.29,14.24,5.04,10.42,4.8,0.49
188,锦州市,41.09,121.12,2026-04-03,3.68,12.18,11.01,7.28,7.41,7.36,6.12
189,凌海市,41.16,121.35,2026-04-03,3.61,11.23,10.95,6.32,7.26,7.47,6.1
190,北镇市,41.6,121.8,2026-04-03,3.04,14.1,13.13,6.81,6.33,8.09,16.16
191,黑山县,41.67,122.12,2026-04-03,2.72,14.54,12.94,6.69,5.69,8.14,13.72
192,义县,41.53,121.23,2026-04-03,1.74,10.9,9.55,6.52,4.5,7.47,13.04
193,营口市,40.66,122.23,2026-04-03,3.51,15.44,14.54,8.2,7.86,9.42,13.77
194,盖州市,40.4,122.35,2026-04-03,4.26,19.76,17.98,10.04,12.28,10.98,14.02
195,大石桥市,40.63,122.51,2026-04-03,4.26,19.76,17.98,10.04,12.28,10.98,14.02
196,阜新市,42.02,121.67,2026-04-03,1.87,11.73,11.38,8.63,4.05,8.97,8.16
197,阜新蒙古族自治县,42.06,121.75,2026-04-03,1.68,11.86,11.29,8.96,3.87,9.06,9.49
198,彰武县,42.38,122.54,2026-04-03,2.43,14.96,13.63,6.63,4.69,8.5,24.76
199,辽阳市,41.26,123.23,2026-04-03,3.34,19.71,16.39,10.02,13.66,9.14,8.71
200,灯塔市,41.42,123.33,2026-04-03,3.34,19.71,16.39,10.02,13.66,9.14,8.71
201,辽阳县,41.2,123.1,2026-04-03,3.34,19.71,16.39,10.02,13.66,9.14,8.71
202,盘锦市,41.12,122.07,2026-04-03,3.96,17.54,15.95,7.8,11.75,9.28,15.25
203,盘山县,41.24,121.99,2026-04-03,3.96,17.54,15.95,7.8,11.75,9.28,15.25
204,铁岭市,42.22,123.72,2026-04-03,2.12,17.68,13.79,7.79,12.9,7.94,17.82
205,调兵山市,42.47,123.55,2026-04-03,2.0,14.52,13.61,7.08,8.2,7.47,22.05
206,开原市,42.54,124.03,2026-04-03,1.83,16.73,13.85,7.3,12.07,7.83,16.46
207,铁岭县,42.22,123.72,2026-04-03,2.12,17.68,13.79,7.79,12.9,7.94,17.82
208,西丰县,42.74,124.72,2026-04-03,1.36,16.37,15.62,6.47,12.51,6.14,8.58
209,昌图县,42.78,124.1,2026-04-03,1.5,15.3,13.28,7.05,10.75,7.45,24.21
210,朝阳市,41.54,120.45,2026-04-03,3.21,17.09,14.82,10.82,6.19,8.71,4.35
211,北票市,41.8,120.77,2026-04-03,2.03,14.09,11.55,9.58,4.29,7.47,4.08
212,凌源市,41.24,119.4,2026-04-03,1.64,16.82,12.81,9.55,7.07,7.81,2.11
213,朝阳县,41.57,120.45,2026-04-03,3.21,17.09,14.82,10.82,6.19,8.71,4.35
214,建平县,41.4,119.64,2026-04-03,2.35,18.92,13.17,10.96,5.99,8.41,1.61
215,喀喇沁左翼蒙古族自治县,41.12,119.74,2026-04-03,2.23,17.21,13.42,10.75,7.81,7.83,4.6
216,葫芦岛市,40.56,120.38,2026-04-03,5.36,15.08,13.4,5.97,12.37,6.65,3.11
217,兴城市,40.61,120.73,2026-04-03,4.58,11.04,10.86,6.25,9.53,5.92,1.13
218,绥中县,40.32,120.34,2026-04-03,5.36,15.08,13.4,5.97,12.37,6.65,3.11
219,建昌县,40.81,119.8,2026-04-03,3.71,15.84,13.2,9.72,10.16,7.01,0.64
1,哈尔滨市,45.58,126.29,2026-04-04,-4.51,8.18,1.83,-0.03,6.15,-4.24,0.0
2,尚志市,45.21,127.96,2026-04-04,-1.25,4.62,0.88,-0.93,2.69,-1.25,2.48
3,五常市,44.92,127.16,2026-04-04,-1.48,6.09,0.74,0.0,3.42,-1.26,1.07
4,巴彦县,46.08,127.4,2026-04-04,-2.04,8.23,4.02,-0.08,5.72,-1.39,0.44
5,宾县,45.75,127.48,2026-04-04,-1.26,6.42,1.52,-0.62,4.42,-0.92,2.24
6,方正县,45.83,128.82,2026-04-04,-2.52,5.19,3.23,-0.02,1.01,-0.88,4.18
7,木兰县,45.95,128.04,2026-04-04,-0.3,7.37,3.15,-0.13,4.83,-0.18,3.25
8,通河县,45.97,128.75,2026-04-04,-1.54,5.69,1.99,-1.42,2.29,-1.23,1.85
9,延寿县,45.45,128.33,2026-04-04,-1.31,5.41,0.23,-1.15,3.2,-1.09,3.37
10,依兰县,46.31,129.56,2026-04-04,-0.85,7.5,1.93,-0.58,4.16,-0.78,4.95
11,齐齐哈尔市,47.35,123.84,2026-04-04,-1.32,10.49,9.64,0.57,7.56,-1.17,0.0
12,讷河市,48.46,124.88,2026-04-04,-1.55,8.35,7.18,-0.41,5.42,-1.09,0.0
13,拜泉县,47.6,126.09,2026-04-04,-2.25,7.69,7.31,-0.08,5.65,-1.58,0.0
14,富裕县,47.77,124.47,2026-04-04,-2.1,10.23,9.19,0.22,6.74,-1.52,0.0
15,甘南县,47.91,123.5,2026-04-04,-1.76,10.84,9.63,-0.02,8.12,-1.4,0.0
16,克东县,48.04,126.25,2026-04-04,-1.49,6.47,6.01,-0.62,4.45,-0.83,0.0
17,克山县,48.04,125.88,2026-04-04,-2.25,6.1,5.59,-1.09,3.73,-1.68,0.0
18,龙江县,47.33,123.2,2026-04-04,-1.3,10.75,9.85,0.3,8.06,-0.92,0.0
19,泰来县,46.39,123.41,2026-04-04,-1.73,9.64,8.57,-0.35,6.32,-1.25,0.0
20,依安县,47.89,125.3,2026-04-04,-2.61,7.84,6.99,-0.34,5.87,-2.0,0.0
21,牡丹江市,44.57,129.55,2026-04-04,-0.01,5.05,3.33,3.0,2.36,0.21,6.9
22,东宁市,44.09,131.12,2026-04-04,1.41,12.58,7.59,12.58,4.11,9.24,0.0
23,海林市,44.59,129.37,2026-04-04,-0.26,5.34,3.88,4.14,2.74,0.58,3.9
24,穆棱市,44.92,130.52,2026-04-04,-0.08,2.89,2.19,2.61,1.11,0.04,3.88
25,宁安市,44.34,129.48,2026-04-04,-0.81,10.05,3.69,10.05,2.41,0.5,2.33
26,绥芬河市,44.41,131.16,2026-04-04,-1.91,8.98,4.64,8.4,1.22,6.6,0.47
27,林口县,45.28,130.27,2026-04-04,-1.64,3.54,1.69,0.48,1.06,-0.89,4.69
28,佳木斯市,46.8,130.31,2026-04-04,-0.9,8.2,5.59,-0.38,5.59,-0.58,3.47
29,抚远市,48.36,134.3,2026-04-04,-0.55,5.75,3.42,1.12,1.69,0.26,0.18
30,富锦市,46.33,132.19,2026-04-04,-0.98,4.54,2.31,0.27,1.32,-0.93,8.04
31,同江市,47.64,132.5,2026-04-04,0.33,7.34,5.4,1.74,4.29,0.71,0.0
32,桦川县,46.24,130.55,2026-04-04,-1.43,6.83,2.1,-0.32,4.08,-1.43,3.45
33,桦南县,46.24,130.55,2026-04-04,-1.43,6.83,2.1,-0.32,4.08,-1.43,3.45
34,汤原县,46.73,129.9,2026-04-04,-1.06,8.1,4.1,-0.81,5.14,-0.91,3.22
35,大庆市,46.58,125.1,2026-04-04,-2.07,8.63,7.21,0.35,7.13,-1.52,0.0
36,杜尔伯特蒙古族自治县,46.86,124.44,2026-04-04,-1.94,8.47,7.3,-0.19,6.07,-1.22,0.0
37,林甸县,47.17,124.86,2026-04-04,-2.08,9.13,7.95,0.24,6.69,-1.45,0.0
38,肇源县,45.52,125.08,2026-04-04,-5.21,7.8,6.32,-1.66,3.72,-4.57,0.0
39,肇州县,45.7,125.26,2026-04-04,-5.1,7.91,6.74,-1.96,4.67,-4.53,0.0
40,鸡西市,45.3,125.1,2026-04-04,-5.21,7.8,6.32,-1.66,3.72,-4.57,0.0
41,虎林市,45.76,132.93,2026-04-04,0.35,7.28,2.37,7.28,2.61,1.57,5.24
42,密山市,45.53,131.84,2026-04-04,-0.79,4.96,3.25,2.23,1.84,-0.5,3.62
43,鸡东县,45.26,131.12,2026-04-04,-1.02,4.57,3.1,2.21,2.65,-0.06,3.75
44,双鸭山市,46.64,131.15,2026-04-04,-1.71,6.79,3.74,-0.1,2.97,-1.33,4.57
45,宝清县,46.33,132.19,2026-04-04,-0.98,4.54,2.31,0.27,1.32,-0.93,8.04
46,集贤县,46.73,131.13,2026-04-04,-1.51,7.17,4.25,0.04,4.05,-0.92,3.9
47,饶河县,46.79,134.01,2026-04-04,-4.92,2.64,1.12,0.75,1.01,-0.19,12.38
48,友谊县,46.77,131.8,2026-04-04,-1.16,6.45,3.27,-0.03,2.74,-1.08,5.08
49,伊春市,47.72,128.84,2026-04-04,-1.98,7.81,7.35,-0.72,3.93,-1.46,0.0
50,铁力市,46.98,128.02,2026-04-04,-0.91,7.91,6.62,0.26,6.06,-0.8,0.0
51,大箐山县,47.14,129.28,2026-04-04,-0.93,9.02,8.32,-0.38,5.14,-0.48,1.5
52,丰林县,48.29,129.53,2026-04-04,-2.37,7.28,6.66,-1.26,2.39,-1.29,0.0
53,嘉荫县,48.89,130.39,2026-04-04,-1.35,7.75,7.06,0.37,3.61,-0.2,0.0
54,南岔县,47.14,129.28,2026-04-04,-0.93,9.02,8.32,-0.38,5.14,-0.48,1.5
55,汤旺县,48.45,129.43,2026-04-04,-3.23,5.84,5.3,-2.5,0.79,-2.29,0.0
56,七台河市,45.77,131.0,2026-04-04,-1.18,6.1,1.4,0.52,3.39,-1.17,7.79
57,勃利县,45.75,130.57,2026-04-04,-3.62,4.55,0.68,0.18,-0.03,-1.38,8.3
58,鹤岗市,47.35,130.29,2026-04-04,-1.07,7.8,6.25,-0.49,5.16,-0.54,0.63
59,萝北县,47.57,130.84,2026-04-04,0.39,8.53,6.44,0.53,5.89,0.74,0.27
60,绥滨县,47.29,131.85,2026-04-04,0.25,7.09,5.46,0.9,4.6,0.37,0.68
61,黑河市,50.24,127.52,2026-04-04,-6.68,6.32,5.32,-3.68,4.32,-5.68,0.0
62,北安市,48.24,126.49,2026-04-04,-1.49,6.47,6.01,-0.62,4.45,-0.83,0.0
63,嫩江市,49.18,125.22,2026-04-04,-0.81,6.6,6.06,-0.55,2.64,-0.41,0.0
64,五大连池市,48.51,126.19,2026-04-04,-1.75,5.73,4.95,-0.85,3.32,-1.24,0.0
65,孙吴县,49.43,127.33,2026-04-04,-2.15,4.06,3.69,-1.58,0.61,-1.53,0.0
66,逊克县,49.57,128.48,2026-04-04,-0.73,6.09,5.42,0.26,3.73,0.12,0.0
67,绥化市,46.65,126.96,2026-04-04,-1.9,8.35,7.1,0.53,6.09,-1.33,0.0
68,安达市,46.45,125.3,2026-04-04,-2.52,8.5,7.09,-0.22,6.9,-2.03,0.0
69,海伦市,47.46,126.97,2026-04-04,-2.34,7.71,7.26,-0.27,5.55,-1.55,0.0
70,肇东市,46.06,125.98,2026-04-04,-1.79,8.47,6.86,-0.07,6.48,-1.19,0.0
71,兰西县,46.26,126.29,2026-04-04,-1.96,8.27,6.74,0.06,6.48,-1.45,0.0
72,明水县,47.17,125.91,2026-04-04,-2.91,7.44,6.91,-0.14,5.73,-2.18,0.0
73,青冈县,46.69,126.1,2026-04-04,-2.64,8.26,7.2,-0.46,6.33,-1.78,0.0
74,庆安县,46.88,127.5,2026-04-04,-1.88,7.71,6.72,0.02,5.55,-1.38,0.0
75,绥棱县,47.24,127.11,2026-04-04,-1.97,8.32,7.82,-0.01,5.97,-1.22,0.0
76,望奎县,46.83,126.48,2026-04-04,-2.14,8.44,7.51,-0.06,6.27,-1.33,0.0
77,加格达奇区,52.5,123.9,2026-04-04,-9.39,2.37,0.46,-7.65,-1.82,-7.44,1.45
78,漠河市,52.97,122.54,2026-04-04,-7.07,2.79,0.68,-7.07,-0.86,-5.07,1.72
79,呼玛县,51.73,126.65,2026-04-04,-5.63,4.89,4.18,-3.99,0.54,-4.37,0.0
80,塔河县,52.33,124.7,2026-04-04,-9.99,2.11,1.86,-9.63,-0.66,-7.08,0.68
81,长春市,43.88,125.31,2026-04-04,-2.99,7.74,2.14,-0.06,5.63,-2.99,0.0
82,公主岭市,43.5,124.82,2026-04-04,-1.32,7.84,5.15,0.23,5.71,-1.29,0.11
83,德惠市,44.53,125.7,2026-04-04,-6.28,8.64,1.17,-0.27,6.59,-6.28,0.0
84,榆树市,44.82,126.55,2026-04-04,-3.68,8.08,0.83,-0.22,4.97,-3.68,0.5
85,农安县,44.43,125.18,2026-04-04,-6.63,4.78,1.06,-1.5,1.14,-6.58,0.65
86,吉林市,43.83,126.55,2026-04-04,0.67,7.61,4.54,1.11,5.17,0.81,3.11
87,蛟河市,43.72,127.34,2026-04-04,-0.02,6.64,4.03,6.64,2.7,1.22,4.94
88,桦甸市,42.97,126.74,2026-04-04,2.08,8.29,6.75,8.08,5.76,2.26,3.95
89,舒兰市,44.41,126.96,2026-04-04,-2.61,5.35,1.01,-0.01,2.63,-2.61,1.96
90,磐石市,42.94,126.06,2026-04-04,0.65,7.64,6.09,4.72,5.77,0.65,6.4
91,永吉县,43.67,126.5,2026-04-04,0.67,7.61,4.54,1.11,5.17,0.81,3.11
92,四平市,43.16,124.35,2026-04-04,-0.94,8.74,6.97,1.07,6.77,-0.68,0.56
93,双辽市,43.52,123.5,2026-04-04,-2.48,9.1,5.95,-0.32,6.61,-2.21,0.0
94,梨树县,43.3,124.33,2026-04-04,-1.14,8.58,6.56,0.89,6.66,-0.86,0.0
95,伊通满族自治县,43.34,125.3,2026-04-04,-0.5,7.42,5.83,0.6,5.27,-0.5,0.86
96,辽源市,42.88,125.14,2026-04-04,-0.34,7.94,6.48,0.78,5.7,-0.34,4.03
97,东丰县,42.67,125.53,2026-04-04,0.08,7.79,6.14,2.91,5.67,0.08,3.64
98,东辽县,42.92,124.99,2026-04-04,-0.34,7.94,6.48,0.78,5.7,-0.34,4.03
99,通化市,41.73,125.94,2026-04-04,1.87,8.94,5.58,8.94,5.07,2.3,4.09
100,梅河口市,42.53,125.68,2026-04-04,0.9,8.07,6.4,7.1,6.07,0.9,5.71
101,集安市,41.12,126.19,2026-04-04,-0.23,6.17,3.91,6.13,2.91,-0.23,9.55
102,通化县,41.68,125.76,2026-04-04,-0.68,5.55,3.33,4.61,3.05,-0.45,5.53
103,辉南县,42.68,126.04,2026-04-04,0.97,8.06,6.54,7.81,6.09,1.22,4.84
104,柳河县,42.28,125.74,2026-04-04,0.56,7.55,5.41,7.55,3.88,0.82,7.34
105,白山市,41.93,126.42,2026-04-04,0.53,8.96,3.94,8.96,3.3,0.74,5.17
106,临江市,41.81,126.92,2026-04-04,0.02,7.97,6.51,7.08,3.67,1.69,2.52
107,抚松县,42.33,127.28,2026-04-04,-1.48,8.24,2.37,7.87,1.34,-0.18,1.77
108,靖宇县,42.38,126.81,2026-04-04,0.66,9.78,4.26,9.78,3.55,1.39,0.94
109,长白朝鲜族自治县,41.41,128.2,2026-04-04,1.31,8.84,6.6,7.36,5.32,6.1,0.0
110,松原市,45.14,124.82,2026-04-04,-7.69,5.66,2.4,-3.19,2.29,-7.53,0.0
111,扶余市,44.98,126.05,2026-04-04,-5.15,8.84,1.76,-0.02,6.77,-5.15,0.1
112,长岭县,44.27,123.96,2026-04-04,-8.56,4.44,1.06,-3.71,2.22,-8.26,0.0
113,乾安县,45.0,124.03,2026-04-04,-4.56,6.29,4.39,-1.68,2.93,-4.22,0.0
114,前郭尔罗斯蒙古族自治县,45.11,124.82,2026-04-04,-7.69,5.66,2.4,-3.19,2.29,-7.53,0.0
115,白城市,41.93,126.42,2026-04-04,0.53,8.96,3.94,8.96,3.3,0.74,5.17
116,洮南市,45.36,122.79,2026-04-04,-5.0,8.76,7.47,-2.63,5.41,-4.82,0.0
117,大安市,45.51,124.29,2026-04-04,-3.32,8.21,6.73,-1.06,5.1,-2.73,0.0
118,镇赉县,45.85,123.2,2026-04-04,-1.89,9.27,7.78,-0.65,5.84,-1.57,0.0
119,通榆县,44.8,123.09,2026-04-04,-6.8,6.71,3.15,-2.83,3.77,-6.6,0.0
120,延吉市,42.89,129.5,2026-04-04,3.05,11.95,11.95,10.38,7.98,8.6,0.0
121,图们市,42.97,129.84,2026-04-04,2.75,11.79,11.79,8.29,7.53,9.23,0.0
122,敦化市,43.37,128.23,2026-04-04,-0.94,8.3,4.82,8.3,2.48,0.92,0.78
123,珲春市,42.86,130.36,2026-04-04,3.96,14.35,14.35,7.78,8.98,7.89,0.11
124,龙井市,42.76,129.42,2026-04-04,3.1,11.84,11.63,10.82,7.86,9.03,0.0
125,和龙市,42.54,129.0,2026-04-04,1.55,11.15,11.04,10.22,6.17,6.45,0.0
126,汪清县,43.31,129.76,2026-04-04,0.31,8.32,7.21,8.32,5.02,7.48,0.46
127,安图县,43.11,128.9,2026-04-04,0.41,10.73,8.42,10.73,5.76,3.34,0.62
128,海拉尔区,49.23,119.82,2026-04-04,-2.82,5.63,4.68,-1.55,1.12,-2.66,0.37
129,满洲里市,49.58,117.43,2026-04-04,-1.26,5.56,4.22,-0.56,4.2,-1.0,0.1
130,牙克石市,49.28,120.73,2026-04-04,-7.96,3.74,2.24,-7.74,0.78,-7.15,0.0
131,扎兰屯市,48.01,122.75,2026-04-04,-1.76,9.68,8.44,0.26,7.07,-0.81,0.0
132,额尔古纳市,50.24,120.18,2026-04-04,-11.09,0.7,-0.76,-11.09,-1.45,-9.4,0.0
133,根河市,50.78,121.52,2026-04-04,-7.51,3.75,1.01,-7.51,-0.26,-6.31,0.0
134,阿荣旗,48.12,123.45,2026-04-04,-1.76,10.84,9.63,-0.02,8.12,-1.4,0.0
135,陈巴尔虎旗,49.33,119.43,2026-04-04,-2.82,5.63,4.68,-1.55,1.12,-2.66,0.37
136,新巴尔虎左旗,48.22,118.27,2026-04-04,-2.17,6.86,5.66,-0.95,5.26,-2.17,0.0
137,新巴尔虎右旗,48.67,116.82,2026-04-04,-0.75,4.29,3.78,1.11,2.68,0.27,0.0
138,莫力达瓦达斡尔族自治旗,48.48,124.51,2026-04-04,-2.05,8.03,6.63,-0.78,5.12,-1.71,0.0
139,鄂伦春自治旗,50.59,123.72,2026-04-04,-6.24,5.23,4.59,-5.13,-0.16,-4.73,0.0
140,鄂温克族自治旗,49.15,119.75,2026-04-04,-2.82,5.63,4.68,-1.55,1.12,-2.66,0.37
141,乌兰浩特市,46.07,122.09,2026-04-04,-5.34,8.56,7.21,-3.93,5.69,-4.18,0.51
142,阿尔山市,47.17,119.93,2026-04-04,-4.54,1.58,1.29,-3.59,-1.59,-4.54,2.07
143,突泉县,45.38,121.56,2026-04-04,-3.58,9.58,8.06,-2.21,6.84,-2.77,0.66
144,科尔沁右翼前旗,46.08,121.95,2026-04-04,-5.34,8.56,7.21,-3.93,5.69,-4.18,0.51
145,科尔沁右翼中旗,45.06,121.47,2026-04-04,-3.58,9.58,8.06,-2.21,6.84,-2.77,0.66
146,扎赉特旗,46.72,122.89,2026-04-04,-1.31,10.08,9.34,0.01,7.29,-1.04,0.0
147,科尔沁区,43.65,122.24,2026-04-04,-2.13,10.16,7.51,-1.45,7.68,-1.28,0.0
148,霍林郭勒市,45.53,119.66,2026-04-04,-11.26,5.38,3.17,-11.18,2.08,-7.91,2.74
149,开鲁县,43.6,121.31,2026-04-04,-2.21,10.98,9.07,-1.79,8.64,-1.26,0.0
150,科尔沁左翼中旗,44.12,123.31,2026-04-04,-7.71,9.05,1.72,-3.11,6.96,-7.71,0.0
151,科尔沁左翼后旗,42.96,122.36,2026-04-04,-1.8,9.43,6.7,-0.86,6.92,-1.34,0.0
152,库伦旗,42.73,121.81,2026-04-04,-1.18,10.3,8.26,0.15,8.35,-0.89,0.0
153,奈曼旗,42.84,120.66,2026-04-04,-1.97,11.89,9.15,-1.16,9.78,-1.29,0.0
154,扎鲁特旗,44.56,120.91,2026-04-04,-3.18,10.14,9.12,-1.97,7.32,-2.6,0.22
155,赤峰市,42.26,118.89,2026-04-04,-0.83,15.0,12.01,0.93,12.02,-0.63,0.0
156,林西县,43.61,118.06,2026-04-04,-2.42,12.77,9.31,-1.92,10.5,-2.25,0.0
157,宁城县,41.6,119.34,2026-04-04,-0.57,13.44,10.89,1.33,10.47,-0.57,0.0
158,阿鲁科尔沁旗,43.88,120.09,2026-04-04,-2.26,12.71,10.55,-1.17,10.73,-1.57,0.0
159,巴林左旗,43.98,119.38,2026-04-04,-2.71,10.55,9.01,-2.07,7.35,-2.31,3.71
160,巴林右旗,43.53,118.67,2026-04-04,-2.77,11.11,7.85,-1.55,7.79,-2.77,0.0
161,克什克腾旗,43.26,117.54,2026-04-04,-5.22,9.6,6.17,-3.5,6.24,-5.22,0.12
162,翁牛特旗,42.94,119.02,2026-04-04,-1.27,14.75,11.4,0.31,12.39,-1.27,0.0
163,喀喇沁旗,41.93,118.7,2026-04-04,-1.71,13.2,11.34,-0.01,10.07,-1.66,0.0
164,敖汉旗,42.29,119.92,2026-04-04,-3.58,9.65,7.03,-2.58,8.47,-3.13,0.0
165,沈阳市,41.79,123.45,2026-04-04,2.01,10.01,8.01,3.01,10.01,2.01,1.67
166,新民市,41.98,122.83,2026-04-04,0.58,10.99,9.04,2.48,9.55,0.58,0.0
167,康平县,42.5,123.43,2026-04-04,-0.41,10.01,8.18,1.79,8.39,-0.41,1.54
168,法库县,42.5,123.43,2026-04-04,-0.41,10.01,8.18,1.79,8.39,-0.41,1.54
169,大连市,38.92,121.64,2026-04-04,3.96,8.96,6.96,5.96,7.96,3.96,0.64
170,瓦房店市,39.62,122.0,2026-04-04,1.68,17.9,15.16,4.25,7.71,1.68,0.0
171,庄河市,39.68,122.96,2026-04-04,4.35,16.23,13.28,8.51,12.3,4.35,0.11
172,长海县,39.28,122.59,2026-04-04,2.67,17.13,13.96,6.99,10.64,2.67,0.0
173,鞍山市,41.10,122.99,2026-04-04,2.06,12.28,9.78,2.6,10.46,2.06,1.0
174,海城市,40.85,122.75,2026-04-04,1.78,12.64,10.01,2.89,10.61,1.78,0.67
175,台安县,41.38,122.43,2026-04-04,1.42,11.6,9.48,3.65,10.4,1.42,0.22
176,岫岩满族自治县,40.29,123.28,2026-04-04,2.78,13.83,11.36,5.36,10.03,2.78,1.67
177,抚顺市,41.88,123.96,2026-04-04,1.53,11.38,9.04,2.06,9.48,1.53,2.57
178,抚顺县,41.88,123.91,2026-04-04,1.53,11.38,9.04,2.06,9.48,1.53,2.57
179,新宾满族自治县,41.73,125.03,2026-04-04,1.07,8.59,7.04,7.32,5.57,1.28,1.57
180,清原满族自治县,42.1,124.92,2026-04-04,0.61,7.86,6.36,3.58,5.09,0.61,2.14
181,本溪市,41.29,123.77,2026-04-04,2.68,11.58,9.13,3.68,9.75,2.85,1.66
182,本溪满族自治县,41.3,124.11,2026-04-04,2.06,10.89,9.01,4.18,8.24,2.44,2.68
183,桓仁满族自治县,41.26,125.35,2026-04-04,3.05,10.15,8.41,8.0,6.98,3.35,5.52
184,丹东市,40.00,124.35,2026-04-04,5.29,15.4,13.45,8.85,12.72,5.29,6.77
185,东港市,39.86,124.15,2026-04-04,5.29,15.4,13.45,8.85,12.72,5.29,6.77
186,凤城市,40.45,124.06,2026-04-04,3.44,14.04,11.91,7.92,10.99,3.44,4.49
187,宽甸满族自治县,40.73,124.78,2026-04-04,3.67,11.49,9.81,7.08,8.65,3.67,8.34
188,锦州市,41.09,121.12,2026-04-04,1.34,12.99,10.81,3.29,8.52,1.34,0.0
189,凌海市,41.16,121.35,2026-04-04,1.16,12.51,10.43,3.15,9.06,1.16,0.0
190,北镇市,41.6,121.8,2026-04-04,1.2,11.59,9.55,2.61,10.18,1.2,0.0
191,黑山县,41.67,122.12,2026-04-04,0.97,11.22,9.17,2.24,9.85,0.97,0.0
192,义县,41.53,121.23,2026-04-04,-0.43,11.61,9.49,1.48,9.55,-0.43,0.0
193,营口市,40.66,122.23,2026-04-04,2.34,10.05,8.76,3.02,6.48,2.34,0.35
194,盖州市,40.4,122.35,2026-04-04,2.02,13.35,10.56,3.13,9.02,2.02,0.53
195,大石桥市,40.63,122.51,2026-04-04,2.02,13.35,10.56,3.13,9.02,2.02,0.53
196,阜新市,42.02,121.67,2026-04-04,0.28,11.99,9.84,1.73,10.2,0.32,0.0
197,阜新蒙古族自治县,42.06,121.75,2026-04-04,0.49,11.81,9.56,1.53,10.11,0.52,0.0
198,彰武县,42.38,122.54,2026-04-04,0.02,11.01,9.05,2.07,9.38,0.02,0.0
199,辽阳市,41.26,123.23,2026-04-04,2.27,12.24,9.73,2.66,10.96,2.27,1.13
200,灯塔市,41.42,123.33,2026-04-04,2.27,12.24,9.73,2.66,10.96,2.27,1.13
201,辽阳县,41.2,123.1,2026-04-04,2.27,12.24,9.73,2.66,10.96,2.27,1.13
202,盘锦市,41.12,122.07,2026-04-04,1.74,12.85,10.25,3.38,11.11,1.74,0.0
203,盘山县,41.24,121.99,2026-04-04,1.74,12.85,10.25,3.38,11.11,1.74,0.0
204,铁岭市,42.22,123.72,2026-04-04,0.79,10.5,8.52,2.07,8.79,0.79,1.5
205,调兵山市,42.47,123.55,2026-04-04,-0.41,10.01,8.18,1.79,8.39,-0.41,1.54
206,开原市,42.54,124.03,2026-04-04,0.42,10.13,8.26,1.96,7.96,0.42,1.42
207,铁岭县,42.22,123.72,2026-04-04,0.79,10.5,8.52,2.07,8.79,0.79,1.5
208,西丰县,42.74,124.72,2026-04-04,-0.07,8.37,6.77,0.93,6.35,0.08,3.07
209,昌图县,42.78,124.1,2026-04-04,-0.06,9.47,7.74,1.76,7.89,0.0,0.6
210,朝阳市,41.54,120.45,2026-04-04,0.96,14.14,10.37,3.01,12.42,0.96,0.0
211,北票市,41.8,120.77,2026-04-04,0.23,12.95,9.57,1.83,11.3,0.23,0.0
212,凌源市,41.24,119.4,2026-04-04,-1.04,13.95,10.9,1.19,10.61,-1.04,0.0
213,朝阳县,41.57,120.45,2026-04-04,0.96,14.14,10.37,3.01,12.42,0.96,0.0
214,建平县,41.4,119.64,2026-04-04,-0.5,14.6,10.65,2.01,11.44,-0.34,0.0
215,喀喇沁左翼蒙古族自治县,41.12,119.74,2026-04-04,-0.72,13.42,9.59,2.16,11.01,-0.72,0.0
216,葫芦岛市,40.56,120.38,2026-04-04,2.35,12.07,12.07,4.94,6.8,2.35,0.0
217,兴城市,40.61,120.73,2026-04-04,2.23,9.29,9.2,4.26,5.99,2.23,0.0
218,绥中县,40.32,120.34,2026-04-04,2.35,12.07,12.07,4.94,6.8,2.35,0.0
219,建昌县,40.81,119.8,2026-04-04,0.52,13.96,10.69,3.34,8.76,0.52,0.0
1,哈尔滨市,45.58,126.29,2026-04-05,0.65,11.43,6.28,1.26,6.21,0.78,1.43
2,尚志市,45.21,127.96,2026-04-05,-1.21,10.08,8.58,-0.33,6.89,0.29,1.08
3,五常市,44.92,127.16,2026-04-05,-0.7,11.26,9.38,-0.01,7.78,0.21,0.41
4,巴彦县,46.08,127.4,2026-04-05,0.12,8.04,6.74,1.27,4.8,0.78,1.31
5,宾县,45.75,127.48,2026-04-05,-0.74,10.21,7.33,0.6,4.5,1.04,0.49
6,方正县,45.83,128.82,2026-04-05,-3.43,9.02,7.75,-2.79,5.5,0.52,0.48
7,木兰县,45.95,128.04,2026-04-05,-0.49,8.66,5.44,0.52,4.32,0.32,1.18
8,通河县,45.97,128.75,2026-04-05,-2.5,7.77,5.61,-1.66,4.22,-0.33,1.89
9,延寿县,45.45,128.33,2026-04-05,-0.87,9.37,7.53,-0.14,5.72,0.07,0.56
10,依兰县,46.31,129.56,2026-04-05,-0.86,7.97,6.46,0.69,4.57,0.22,2.75
11,齐齐哈尔市,47.35,123.84,2026-04-05,0.66,4.64,4.64,2.76,3.48,1.91,1.16
12,讷河市,48.46,124.88,2026-04-05,-0.21,6.26,6.19,0.54,2.61,0.06,0.0
13,拜泉县,47.6,126.09,2026-04-05,-0.81,6.69,5.88,1.59,0.57,0.78,8.3
14,富裕县,47.77,124.47,2026-04-05,0.06,5.85,5.62,1.92,3.61,0.78,1.04
15,甘南县,47.91,123.5,2026-04-05,0.67,6.41,6.41,2.95,4.13,0.89,0.0
16,克东县,48.04,126.25,2026-04-05,-1.23,6.9,6.9,0.33,0.88,0.07,3.21
17,克山县,48.04,125.88,2026-04-05,-1.99,5.65,5.54,-0.04,0.58,-0.72,3.11
18,龙江县,47.33,123.2,2026-04-05,1.25,4.48,2.53,2.91,3.61,1.72,0.6
19,泰来县,46.39,123.41,2026-04-05,0.62,3.39,2.58,2.78,3.02,0.81,6.92
20,依安县,47.89,125.3,2026-04-05,-1.32,5.75,5.35,1.34,0.51,1.05,7.28
21,牡丹江市,44.57,129.55,2026-04-05,-0.86,12.63,10.52,-0.05,6.68,0.41,2.9
22,东宁市,44.09,131.12,2026-04-05,-0.47,13.14,8.57,0.93,6.8,1.04,0.0
23,海林市,44.59,129.37,2026-04-05,-1.3,11.79,9.9,-0.47,6.63,0.3,0.69
24,穆棱市,44.92,130.52,2026-04-05,-0.82,9.64,7.35,-0.01,6.22,0.2,0.13
25,宁安市,44.34,129.48,2026-04-05,-1.82,12.2,10.74,-1.04,7.69,-0.46,0.52
26,绥芬河市,44.41,131.16,2026-04-05,-2.53,7.29,5.27,-1.91,3.09,-0.91,0.0
27,林口县,45.28,130.27,2026-04-05,-2.5,9.16,7.03,-1.81,5.49,-0.95,1.07
28,佳木斯市,46.8,130.31,2026-04-05,-0.2,7.71,6.93,2.12,5.63,1.07,0.0
29,抚远市,48.36,134.3,2026-04-05,-1.43,6.5,6.3,-0.47,2.78,0.2,0.0
30,富锦市,46.33,132.19,2026-04-05,-1.56,7.32,6.4,-0.38,5.4,-0.49,0.36
31,同江市,47.64,132.5,2026-04-05,-1.04,7.03,6.98,0.3,3.77,0.48,0.0
32,桦川县,46.24,130.55,2026-04-05,-1.12,7.3,6.81,0.22,5.48,0.25,0.22
33,桦南县,46.24,130.55,2026-04-05,-1.12,7.3,6.81,0.22,5.48,0.25,0.22
34,汤原县,46.73,129.9,2026-04-05,-1.26,7.91,7.28,1.43,5.64,0.33,0.11
35,大庆市,46.58,125.1,2026-04-05,0.85,4.19,2.75,2.64,2.2,2.14,12.46
36,杜尔伯特蒙古族自治县,46.86,124.44,2026-04-05,0.49,4.95,3.59,2.12,1.69,1.95,3.73
37,林甸县,47.17,124.86,2026-04-05,-0.13,5.72,5.72,2.38,1.22,1.79,3.86
38,肇源县,45.52,125.08,2026-04-05,0.31,6.24,2.08,0.97,3.04,0.42,11.65
39,肇州县,45.7,125.26,2026-04-05,0.57,5.44,2.14,1.35,3.75,0.78,6.24
40,鸡西市,45.3,125.1,2026-04-05,0.31,6.24,2.08,0.97,3.04,0.42,11.65
41,虎林市,45.76,132.93,2026-04-05,-0.98,8.6,6.42,-0.25,6.18,0.32,0.0
42,密山市,45.53,131.84,2026-04-05,-1.83,7.26,6.86,-1.13,5.36,-0.23,0.0
43,鸡东县,45.26,131.12,2026-04-05,-2.12,8.21,6.77,-1.35,5.19,-0.49,0.0
44,双鸭山市,46.64,131.15,2026-04-05,-2.24,6.98,6.34,-0.45,3.89,0.16,0.0
45,宝清县,46.33,132.19,2026-04-05,-1.56,7.32,6.4,-0.38,5.4,-0.49,0.36
46,集贤县,46.73,131.13,2026-04-05,-1.45,7.11,6.56,0.66,4.23,0.3,0.0
47,饶河县,46.79,134.01,2026-04-05,-5.87,7.94,6.56,-5.15,4.07,-2.49,0.0
48,友谊县,46.77,131.8,2026-04-05,-1.5,7.73,6.16,0.03,5.47,-0.22,0.0
49,伊春市,47.72,128.84,2026-04-05,-3.08,5.93,5.06,-1.39,2.55,-1.48,1.35
50,铁力市,46.98,128.02,2026-04-05,-0.59,6.11,5.6,0.82,5.48,1.1,0.0
51,大箐山县,47.14,129.28,2026-04-05,-1.82,6.33,5.15,0.11,4.45,-0.23,0.19
52,丰林县,48.29,129.53,2026-04-05,-3.65,5.78,5.78,-2.64,1.82,-1.77,0.47
53,嘉荫县,48.89,130.39,2026-04-05,-1.53,7.78,7.73,0.08,3.93,-0.03,0.0
54,南岔县,47.14,129.28,2026-04-05,-1.82,6.33,5.15,0.11,4.45,-0.23,0.19
55,汤旺县,48.45,129.43,2026-04-05,-3.98,6.19,6.19,-3.03,1.43,-1.86,0.36
56,七台河市,45.77,131.0,2026-04-05,-1.13,6.56,6.46,-0.72,3.82,0.09,0.8
57,勃利县,45.75,130.57,2026-04-05,-4.05,6.51,5.67,-3.32,3.06,-0.92,0.77
58,鹤岗市,47.35,130.29,2026-04-05,-2.2,5.32,4.62,0.55,3.17,-1.09,0.0
59,萝北县,47.57,130.84,2026-04-05,-0.81,6.36,6.36,2.2,4.1,0.22,0.14
60,绥滨县,47.29,131.85,2026-04-05,-1.29,6.78,6.77,0.61,4.68,0.11,0.1
61,黑河市,50.24,127.52,2026-04-05,-5.68,8.32,7.32,-1.68,4.32,-5.68,0.0
62,北安市,48.24,126.49,2026-04-05,-1.23,6.9,6.9,0.33,0.88,0.07,3.21
63,嫩江市,49.18,125.22,2026-04-05,-0.06,7.48,7.06,0.56,4.32,0.42,0.0
64,五大连池市,48.51,126.19,2026-04-05,-0.95,6.02,5.8,-0.06,1.15,-0.3,0.13
65,孙吴县,49.43,127.33,2026-04-05,-1.11,6.28,5.68,-0.53,3.69,-0.56,0.0
66,逊克县,49.57,128.48,2026-04-05,-0.75,7.95,7.27,0.5,4.67,0.05,0.12
67,绥化市,46.65,126.96,2026-04-05,-0.05,6.38,5.75,1.36,5.07,1.19,3.82
68,安达市,46.45,125.3,2026-04-05,1.0,3.85,2.49,2.23,1.84,1.85,9.71
69,海伦市,47.46,126.97,2026-04-05,-0.34,6.83,5.66,1.17,0.92,0.3,3.57
70,肇东市,46.06,125.98,2026-04-05,1.4,4.32,2.99,2.01,4.09,1.51,6.23
71,兰西县,46.26,126.29,2026-04-05,0.99,4.66,3.34,1.97,4.04,1.38,4.71
72,明水县,47.17,125.91,2026-04-05,-0.19,5.43,5.38,1.46,0.25,0.87,11.16
73,青冈县,46.69,126.1,2026-04-05,0.69,5.38,4.34,1.95,1.17,1.23,11.58
74,庆安县,46.88,127.5,2026-04-05,-0.52,5.94,5.12,0.71,5.31,1.01,1.53
75,绥棱县,47.24,127.11,2026-04-05,-0.04,6.73,5.78,1.36,2.71,0.62,1.28
76,望奎县,46.83,126.48,2026-04-05,0.5,6.15,6.15,1.81,1.19,1.18,8.51
77,加格达奇区,52.5,123.9,2026-04-05,-7.18,2.26,1.57,-7.18,-0.24,-4.8,1.42
78,漠河市,52.97,122.54,2026-04-05,-5.96,2.94,0.68,-5.96,0.89,-3.68,3.1
79,呼玛县,51.73,126.65,2026-04-05,-2.16,5.32,5.19,-1.57,0.92,-2.05,0.0
80,塔河县,52.33,124.7,2026-04-05,-5.87,4.19,3.92,-3.07,0.27,-4.08,0.55
81,长春市,43.88,125.31,2026-04-05,1.88,11.85,11.56,2.9,5.23,2.07,0.23
82,公主岭市,43.5,124.82,2026-04-05,2.14,11.86,11.4,2.85,5.65,2.82,0.0
83,德惠市,44.53,125.7,2026-04-05,1.36,12.52,12.19,2.69,4.92,1.55,1.2
84,榆树市,44.82,126.55,2026-04-05,-0.1,11.5,10.5,0.9,6.37,0.45,0.5
85,农安县,44.43,125.18,2026-04-05,0.7,10.84,10.28,0.77,2.56,0.95,2.93
86,吉林市,43.83,126.55,2026-04-05,0.67,12.87,11.17,2.19,9.01,1.25,0.0
87,蛟河市,43.72,127.34,2026-04-05,-1.09,10.77,10.77,0.5,7.79,0.07,1.82
88,桦甸市,42.97,126.74,2026-04-05,-0.28,12.57,11.31,1.9,8.98,0.44,1.57
89,舒兰市,44.41,126.96,2026-04-05,-0.29,11.72,9.84,0.23,7.92,1.0,0.4
90,磐石市,42.94,126.06,2026-04-05,-0.33,11.52,10.15,2.48,8.19,0.76,0.59
91,永吉县,43.67,126.5,2026-04-05,0.67,12.87,11.17,2.19,9.01,1.25,0.0
92,四平市,43.16,124.35,2026-04-05,3.28,12.14,11.52,3.75,6.65,4.78,0.0
93,双辽市,43.52,123.5,2026-04-05,2.58,10.29,9.99,4.26,5.35,4.38,0.52
94,梨树县,43.3,124.33,2026-04-05,2.99,12.16,11.75,3.88,6.39,4.53,0.0
95,伊通满族自治县,43.34,125.3,2026-04-05,1.29,12.72,10.24,2.75,7.04,1.71,0.0
96,辽源市,42.88,125.14,2026-04-05,2.21,12.79,10.4,2.78,6.54,2.87,0.33
97,东丰县,42.67,125.53,2026-04-05,0.95,12.01,12.01,2.79,6.91,1.3,0.2
98,东辽县,42.92,124.99,2026-04-05,2.21,12.79,10.4,2.78,6.54,2.87,0.33
99,通化市,41.73,125.94,2026-04-05,0.61,12.73,12.4,1.52,6.8,1.62,0.15
100,梅河口市,42.53,125.68,2026-04-05,0.85,12.53,12.53,2.93,8.35,1.7,1.65
101,集安市,41.12,126.19,2026-04-05,-1.92,9.71,9.41,-0.4,4.34,-1.36,0.0
102,通化县,41.68,125.76,2026-04-05,-1.83,9.46,9.04,-0.51,4.01,-1.46,0.0
103,辉南县,42.68,126.04,2026-04-05,-0.02,12.25,12.25,2.69,8.7,1.44,0.0
104,柳河县,42.28,125.74,2026-04-05,0.13,11.91,11.85,0.73,7.55,1.08,0.77
105,白山市,41.93,126.42,2026-04-05,-0.49,12.41,11.81,0.5,6.13,0.25,1.22
106,临江市,41.81,126.92,2026-04-05,-1.14,12.49,11.99,-0.41,7.13,-0.11,0.25
107,抚松县,42.33,127.28,2026-04-05,-2.59,13.62,13.62,-1.76,7.57,-0.85,0.0
108,靖宇县,42.38,126.81,2026-04-05,-1.72,12.83,12.83,0.0,7.08,-0.73,0.63
109,长白朝鲜族自治县,41.41,128.2,2026-04-05,0.49,14.74,14.74,1.1,8.36,1.71,0.0
110,松原市,45.14,124.82,2026-04-05,0.39,9.58,7.44,0.67,2.83,0.74,10.82
111,扶余市,44.98,126.05,2026-04-05,1.0,12.34,11.84,2.33,5.69,1.23,2.83
112,长岭县,44.27,123.96,2026-04-05,0.62,11.67,11.67,4.44,2.45,3.06,2.9
113,乾安县,45.0,124.03,2026-04-05,0.61,8.5,8.02,1.16,2.02,0.88,8.96
114,前郭尔罗斯蒙古族自治县,45.11,124.82,2026-04-05,0.39,9.58,7.44,0.67,2.83,0.74,10.82
115,白城市,41.93,126.42,2026-04-05,-0.49,12.41,11.81,0.5,6.13,0.25,1.22
116,洮南市,45.36,122.79,2026-04-05,-0.44,3.21,2.52,2.21,2.33,0.78,4.38
117,大安市,45.51,124.29,2026-04-05,-0.1,3.96,1.71,2.37,1.56,0.75,11.46
118,镇赉县,45.85,123.2,2026-04-05,-0.13,2.84,1.85,2.84,2.48,0.57,5.06
119,通榆县,44.8,123.09,2026-04-05,0.24,9.07,9.07,1.77,2.59,2.38,1.97
120,延吉市,42.89,129.5,2026-04-05,-0.02,13.78,13.58,2.59,8.48,1.25,1.22
121,图们市,42.97,129.84,2026-04-05,-0.22,12.27,12.27,2.07,5.85,1.22,0.17
122,敦化市,43.37,128.23,2026-04-05,-2.58,12.75,12.39,-1.45,6.36,-1.26,1.65
123,珲春市,42.86,130.36,2026-04-05,0.74,11.09,10.96,3.28,5.07,2.12,0.0
124,龙井市,42.76,129.42,2026-04-05,-0.16,14.58,13.8,2.63,9.08,1.28,0.1
125,和龙市,42.54,129.0,2026-04-05,-1.19,14.71,14.71,1.02,8.56,0.35,0.97
126,汪清县,43.31,129.76,2026-04-05,-1.73,10.59,10.19,-0.18,4.57,-0.16,0.79
127,安图县,43.11,128.9,2026-04-05,-1.76,14.63,11.96,-0.12,7.41,-0.42,4.37
128,海拉尔区,49.23,119.82,2026-04-05,-5.85,1.01,0.63,-0.53,-3.5,-1.87,2.34
129,满洲里市,49.58,117.43,2026-04-05,-5.77,-0.45,-2.0,-1.67,-2.31,-5.33,0.13
130,牙克石市,49.28,120.73,2026-04-05,-6.83,-0.12,-0.54,-2.81,-1.38,-2.59,13.71
131,扎兰屯市,48.01,122.75,2026-04-05,1.29,5.04,3.95,2.71,3.95,1.47,0.27
132,额尔古纳市,50.24,120.18,2026-04-05,-11.62,0.17,-0.19,-10.69,-4.34,-4.74,7.66
133,根河市,50.78,121.52,2026-04-05,-4.66,1.53,0.33,-4.36,-0.77,-2.86,3.7
134,阿荣旗,48.12,123.45,2026-04-05,0.67,6.41,6.41,2.95,4.13,0.89,0.0
135,陈巴尔虎旗,49.33,119.43,2026-04-05,-5.85,1.01,0.63,-0.53,-3.5,-1.87,2.34
136,新巴尔虎左旗,48.22,118.27,2026-04-05,-4.21,0.24,-0.83,-1.26,-1.09,-1.59,0.12
137,新巴尔虎右旗,48.67,116.82,2026-04-05,-5.84,1.12,-0.4,-0.99,-0.35,-4.22,0.0
138,莫力达瓦达斡尔族自治旗,48.48,124.51,2026-04-05,-0.72,5.62,5.57,-0.05,3.52,-0.38,0.0
139,鄂伦春自治旗,50.59,123.72,2026-04-05,-3.03,3.52,3.34,-2.3,0.74,-2.75,0.11
140,鄂温克族自治旗,49.15,119.75,2026-04-05,-5.85,1.01,0.63,-0.53,-3.5,-1.87,2.34
141,乌兰浩特市,46.07,122.09,2026-04-05,-1.03,4.1,1.3,-0.21,2.72,-1.03,12.33
142,阿尔山市,47.17,119.93,2026-04-05,-7.27,-2.03,-2.03,-2.95,-4.39,-3.9,5.6
143,突泉县,45.38,121.56,2026-04-05,-1.58,5.95,2.76,1.22,3.18,-1.58,9.55
144,科尔沁右翼前旗,46.08,121.95,2026-04-05,-1.03,4.1,1.3,-0.21,2.72,-1.03,12.33
145,科尔沁右翼中旗,45.06,121.47,2026-04-05,-1.58,5.95,2.76,1.22,3.18,-1.58,9.55
146,扎赉特旗,46.72,122.89,2026-04-05,0.58,3.32,2.42,3.32,2.99,0.58,2.84
147,科尔沁区,43.65,122.24,2026-04-05,3.15,7.89,7.89,4.79,5.68,5.27,0.13
148,霍林郭勒市,45.53,119.66,2026-04-05,-6.64,-1.13,-1.74,-3.88,-2.72,-6.37,2.86
149,开鲁县,43.6,121.31,2026-04-05,2.95,8.69,7.96,5.58,6.53,3.6,0.0
150,科尔沁左翼中旗,44.12,123.31,2026-04-05,0.78,9.86,9.86,3.46,3.86,3.78,2.73
151,科尔沁左翼后旗,42.96,122.36,2026-04-05,3.43,9.19,8.28,5.2,5.68,3.8,0.0
152,库伦旗,42.73,121.81,2026-04-05,2.11,11.06,10.35,5.62,8.23,5.19,0.0
153,奈曼旗,42.84,120.66,2026-04-05,1.49,10.41,9.66,8.24,2.95,5.94,0.63
154,扎鲁特旗,44.56,120.91,2026-04-05,-1.41,7.08,3.92,3.75,4.48,-1.41,0.37
155,赤峰市,42.26,118.89,2026-04-05,0.16,9.49,8.94,7.99,4.98,4.99,0.44
156,林西县,43.61,118.06,2026-04-05,-4.33,4.45,3.1,2.37,0.27,0.86,0.0
157,宁城县,41.6,119.34,2026-04-05,0.75,10.56,10.38,6.85,6.55,3.73,0.12
158,阿鲁科尔沁旗,43.88,120.09,2026-04-05,1.73,10.59,8.8,9.5,5.86,1.81,0.0
159,巴林左旗,43.98,119.38,2026-04-05,-1.4,5.85,5.8,1.81,1.67,-1.4,0.0
160,巴林右旗,43.53,118.67,2026-04-05,-3.15,6.09,6.09,1.15,1.38,1.11,0.0
161,克什克腾旗,43.26,117.54,2026-04-05,-8.77,0.69,-3.17,0.69,-3.07,-1.94,3.21
162,翁牛特旗,42.94,119.02,2026-04-05,-0.93,8.91,8.61,6.93,3.49,4.65,0.0
163,喀喇沁旗,41.93,118.7,2026-04-05,-1.29,8.55,7.5,5.75,4.46,2.99,0.0
164,敖汉旗,42.29,119.92,2026-04-05,-2.1,8.45,8.11,4.89,0.67,2.88,1.65
165,沈阳市,41.79,123.45,2026-04-05,1.01,14.01,11.01,1.01,7.01,6.01,4.74
166,新民市,41.98,122.83,2026-04-05,5.19,14.24,12.86,6.27,8.91,5.71,2.03
167,康平县,42.5,123.43,2026-04-05,4.85,13.11,12.46,5.59,7.9,5.03,1.87
168,法库县,42.5,123.43,2026-04-05,4.85,13.11,12.46,5.59,7.9,5.03,1.87
169,大连市,38.92,121.64,2026-04-05,3.96,16.96,14.96,4.96,15.96,6.96,0.0
170,瓦房店市,39.62,122.0,2026-04-05,3.44,15.89,13.87,4.2,11.42,3.83,0.0
171,庄河市,39.68,122.96,2026-04-05,5.13,10.96,10.32,7.12,9.56,5.13,0.0
172,长海县,39.28,122.59,2026-04-05,3.78,16.11,14.25,5.47,13.19,3.87,0.0
173,鞍山市,41.10,122.99,2026-04-05,5.67,16.09,15.03,5.77,10.92,6.65,7.47
174,海城市,40.85,122.75,2026-04-05,5.32,15.76,14.87,5.58,11.3,6.63,0.0
175,台安县,41.38,122.43,2026-04-05,4.85,15.57,13.35,6.11,8.08,5.52,4.01
176,岫岩满族自治县,40.29,123.28,2026-04-05,4.56,14.63,12.33,5.81,9.29,4.56,0.0
177,抚顺市,41.88,123.96,2026-04-05,4.24,14.82,13.15,5.45,7.97,5.1,5.74
178,抚顺县,41.88,123.91,2026-04-05,4.24,14.82,13.15,5.45,7.97,5.1,5.74
179,新宾满族自治县,41.73,125.03,2026-04-05,-0.27,11.31,11.31,1.41,6.43,0.19,1.86
180,清原满族自治县,42.1,124.92,2026-04-05,0.72,10.63,10.45,1.48,7.51,1.56,0.94
181,本溪市,41.29,123.77,2026-04-05,4.5,13.62,12.29,5.66,11.03,4.91,0.0
182,本溪满族自治县,41.3,124.11,2026-04-05,2.98,11.8,11.66,4.44,8.12,3.6,0.38
183,桓仁满族自治县,41.26,125.35,2026-04-05,1.33,13.94,12.96,3.16,7.73,1.75,0.0
184,丹东市,40.00,124.35,2026-04-05,4.87,11.39,11.39,8.54,7.58,5.3,0.0
185,东港市,39.86,124.15,2026-04-05,4.87,11.39,11.39,8.54,7.58,5.3,0.0
186,凤城市,40.45,124.06,2026-04-05,4.96,12.89,12.89,6.87,8.59,5.03,0.0
187,宽甸满族自治县,40.73,124.78,2026-04-05,2.24,11.21,11.21,4.27,6.51,2.85,0.0
188,锦州市,41.09,121.12,2026-04-05,3.92,17.12,16.44,4.69,10.93,4.26,0.25
189,凌海市,41.16,121.35,2026-04-05,4.08,15.73,15.45,4.67,11.18,4.59,0.84
190,北镇市,41.6,121.8,2026-04-05,4.06,14.8,13.73,4.94,9.23,4.9,4.94
191,黑山县,41.67,122.12,2026-04-05,4.08,14.47,13.44,5.12,9.58,4.63,9.3
192,义县,41.53,121.23,2026-04-05,2.4,14.24,13.95,4.47,8.55,4.21,2.13
193,营口市,40.66,122.23,2026-04-05,4.26,8.44,6.79,4.26,6.37,6.42,0.0
194,盖州市,40.4,122.35,2026-04-05,5.2,15.52,13.54,5.2,10.44,8.15,0.0
195,大石桥市,40.63,122.51,2026-04-05,5.2,15.52,13.54,5.2,10.44,8.15,0.0
196,阜新市,42.02,121.67,2026-04-05,3.24,14.2,14.2,6.38,8.07,5.61,7.99
197,阜新蒙古族自治县,42.06,121.75,2026-04-05,3.23,13.94,13.94,6.8,7.9,5.9,6.98
198,彰武县,42.38,122.54,2026-04-05,5.15,13.92,13.92,6.3,10.1,5.54,0.86
199,辽阳市,41.26,123.23,2026-04-05,5.83,15.85,15.2,6.7,10.58,6.72,0.3
200,灯塔市,41.42,123.33,2026-04-05,5.83,15.85,15.2,6.7,10.58,6.72,0.3
201,辽阳县,41.2,123.1,2026-04-05,5.83,15.85,15.2,6.7,10.58,6.72,0.3
202,盘锦市,41.12,122.07,2026-04-05,4.74,15.5,12.42,5.27,11.79,5.62,0.14
203,盘山县,41.24,121.99,2026-04-05,4.74,15.5,12.42,5.27,11.79,5.62,0.14
204,铁岭市,42.22,123.72,2026-04-05,4.39,14.65,13.28,5.73,7.34,5.82,1.14
205,调兵山市,42.47,123.55,2026-04-05,4.85,13.11,12.46,5.59,7.9,5.03,1.87
206,开原市,42.54,124.03,2026-04-05,4.24,13.5,12.48,4.7,6.7,5.17,1.22
207,铁岭县,42.22,123.72,2026-04-05,4.39,14.65,13.28,5.73,7.34,5.82,1.14
208,西丰县,42.74,124.72,2026-04-05,2.12,12.69,10.77,3.12,6.39,3.36,0.95
209,昌图县,42.78,124.1,2026-04-05,3.98,12.69,11.69,4.33,7.33,4.18,0.41
210,朝阳市,41.54,120.45,2026-04-05,4.45,14.7,14.11,6.2,7.2,4.45,0.0
211,北票市,41.8,120.77,2026-04-05,4.21,14.06,13.66,5.79,6.37,4.21,0.73
212,凌源市,41.24,119.4,2026-04-05,2.01,12.17,11.32,5.66,6.93,2.51,0.0
213,朝阳县,41.57,120.45,2026-04-05,4.45,14.7,14.11,6.2,7.2,4.45,0.0
214,建平县,41.4,119.64,2026-04-05,2.8,12.7,12.06,6.77,7.07,3.73,0.0
215,喀喇沁左翼蒙古族自治县,41.12,119.74,2026-04-05,3.0,13.49,12.66,5.64,6.82,3.0,0.0
216,葫芦岛市,40.56,120.38,2026-04-05,3.36,18.75,17.85,4.5,14.7,3.73,0.0
217,兴城市,40.61,120.73,2026-04-05,3.48,16.81,14.87,4.13,11.85,4.17,0.0
218,绥中县,40.32,120.34,2026-04-05,3.36,18.75,17.85,4.5,14.7,3.73,0.0
219,建昌县,40.81,119.8,2026-04-05,2.19,14.9,14.7,3.46,10.64,2.55,0.0
1,哈尔滨市,45.58,126.29,2026-04-06,-0.49,4.52,3.27,1.57,3.15,0.72,0.31
2,尚志市,45.21,127.96,2026-04-06,0.01,5.07,3.57,2.82,1.29,0.9,0.0
3,五常市,44.92,127.16,2026-04-06,-0.73,4.34,3.81,2.08,2.07,0.74,0.0
4,巴彦县,46.08,127.4,2026-04-06,0.64,3.68,3.0,3.5,2.23,1.18,0.58
5,宾县,45.75,127.48,2026-04-06,0.42,4.17,3.38,2.46,2.03,0.97,0.66
6,方正县,45.83,128.82,2026-04-06,0.25,4.26,3.31,4.26,1.88,1.35,4.05
7,木兰县,45.95,128.04,2026-04-06,1.1,3.99,3.98,2.51,2.23,1.5,0.33
8,通河县,45.97,128.75,2026-04-06,0.04,4.39,4.23,1.39,1.94,0.62,4.48
9,延寿县,45.45,128.33,2026-04-06,0.7,4.81,4.48,3.86,2.31,1.47,0.1
10,依兰县,46.31,129.56,2026-04-06,0.02,3.92,2.2,2.93,0.79,1.03,13.28
11,齐齐哈尔市,47.35,123.84,2026-04-06,-0.53,3.0,1.31,0.52,2.97,-0.53,5.78
12,讷河市,48.46,124.88,2026-04-06,-1.53,3.26,1.37,-0.48,3.26,-1.53,4.41
13,拜泉县,47.6,126.09,2026-04-06,-0.71,2.97,0.33,-0.68,1.3,0.3,6.81
14,富裕县,47.77,124.47,2026-04-06,-1.0,4.42,1.86,0.08,2.13,-1.0,5.46
15,甘南县,47.91,123.5,2026-04-06,-0.5,4.38,2.44,1.08,3.31,-0.5,2.88
16,克东县,48.04,126.25,2026-04-06,-1.87,2.84,1.96,-1.68,1.33,-1.21,7.8
17,克山县,48.04,125.88,2026-04-06,-2.49,1.72,0.42,-2.09,0.02,-2.36,11.47
18,龙江县,47.33,123.2,2026-04-06,-0.3,2.9,1.0,1.39,2.64,-0.3,4.73
19,泰来县,46.39,123.41,2026-04-06,0.01,2.73,2.73,1.14,1.88,0.18,1.81
20,依安县,47.89,125.3,2026-04-06,-1.97,1.85,0.12,-1.63,1.26,-1.53,9.35
21,牡丹江市,44.57,129.55,2026-04-06,0.6,5.3,4.53,5.13,2.27,2.43,7.25
22,东宁市,44.09,131.12,2026-04-06,1.05,7.61,4.77,2.54,3.76,2.8,14.02
23,海林市,44.59,129.37,2026-04-06,0.4,5.37,5.06,4.61,2.29,1.98,5.57
24,穆棱市,44.92,130.52,2026-04-06,0.52,4.5,2.68,3.43,2.39,2.15,14.44
25,宁安市,44.34,129.48,2026-04-06,-0.11,5.0,5.0,2.88,2.08,1.83,10.51
26,绥芬河市,44.41,131.16,2026-04-06,-4.16,3.24,1.61,-0.04,-0.47,0.53,18.66
27,林口县,45.28,130.27,2026-04-06,0.05,3.52,2.56,1.84,1.43,1.78,10.11
28,佳木斯市,46.8,130.31,2026-04-06,-1.86,3.0,1.61,3.0,0.6,1.03,15.19
29,抚远市,48.36,134.3,2026-04-06,-1.42,0.59,0.52,0.35,0.03,-1.12,18.5
30,富锦市,46.33,132.19,2026-04-06,-0.28,2.93,1.76,2.93,0.9,1.54,13.04
31,同江市,47.64,132.5,2026-04-06,-1.02,1.07,0.98,1.07,-0.3,-0.75,16.29
32,桦川县,46.24,130.55,2026-04-06,-0.66,3.03,1.18,3.03,0.63,1.89,12.07
33,桦南县,46.24,130.55,2026-04-06,-0.66,3.03,1.18,3.03,0.63,1.89,12.07
34,汤原县,46.73,129.9,2026-04-06,-1.59,2.76,1.12,2.76,0.62,0.61,13.62
35,大庆市,46.58,125.1,2026-04-06,-0.73,3.58,3.42,0.43,2.99,-0.73,0.28
36,杜尔伯特蒙古族自治县,46.86,124.44,2026-04-06,-0.67,2.09,1.63,0.35,2.08,-0.48,2.98
37,林甸县,47.17,124.86,2026-04-06,-1.11,3.71,1.62,-0.42,1.74,-0.95,6.03
38,肇源县,45.52,125.08,2026-04-06,0.33,4.89,3.61,1.19,2.72,0.44,0.34
39,肇州县,45.7,125.26,2026-04-06,0.23,4.61,3.82,1.02,2.85,0.23,0.66
40,鸡西市,45.3,125.1,2026-04-06,0.33,4.89,3.61,1.19,2.72,0.44,0.34
41,虎林市,45.76,132.93,2026-04-06,0.81,3.66,2.49,3.66,1.65,1.07,17.29
42,密山市,45.53,131.84,2026-04-06,0.5,2.86,1.57,2.86,1.28,1.38,19.03
43,鸡东县,45.26,131.12,2026-04-06,0.9,3.45,1.97,3.45,1.88,1.76,18.13
44,双鸭山市,46.64,131.15,2026-04-06,-1.22,2.89,1.96,2.89,0.56,1.79,15.52
45,宝清县,46.33,132.19,2026-04-06,-0.28,2.93,1.76,2.93,0.9,1.54,13.04
46,集贤县,46.73,131.13,2026-04-06,-1.11,2.77,1.49,2.77,0.37,1.5,11.67
47,饶河县,46.79,134.01,2026-04-06,0.56,2.48,1.65,2.48,0.87,1.07,15.52
48,友谊县,46.77,131.8,2026-04-06,-0.54,3.02,1.84,3.02,1.28,1.93,17.79
49,伊春市,47.72,128.84,2026-04-06,-2.63,2.54,2.36,-0.2,1.31,-1.28,1.8
50,铁力市,46.98,128.02,2026-04-06,0.69,4.6,4.17,1.98,2.85,0.94,0.92
51,大箐山县,47.14,129.28,2026-04-06,-0.71,3.02,2.75,0.89,1.6,0.14,6.77
52,丰林县,48.29,129.53,2026-04-06,-2.43,1.46,1.14,-0.78,0.07,-1.9,4.52
53,嘉荫县,48.89,130.39,2026-04-06,-0.31,2.55,1.92,2.1,1.34,-0.31,4.29
54,南岔县,47.14,129.28,2026-04-06,-0.71,3.02,2.75,0.89,1.6,0.14,6.77
55,汤旺县,48.45,129.43,2026-04-06,-6.2,1.43,1.43,-0.41,-0.56,-2.86,5.57
56,七台河市,45.77,131.0,2026-04-06,-0.61,2.56,1.26,2.31,0.18,1.9,18.66
57,勃利县,45.75,130.57,2026-04-06,-0.51,2.39,2.15,1.87,0.68,2.09,15.95
58,鹤岗市,47.35,130.29,2026-04-06,-2.74,0.67,0.06,0.67,-0.89,-1.68,12.72
59,萝北县,47.57,130.84,2026-04-06,-1.13,1.18,0.5,1.18,-0.42,-0.92,9.66
60,绥滨县,47.29,131.85,2026-04-06,-0.87,1.0,1.0,0.98,0.22,0.21,16.39
61,黑河市,50.24,127.52,2026-04-06,-0.68,9.32,7.32,0.32,7.32,-0.68,0.0
62,北安市,48.24,126.49,2026-04-06,-1.87,2.84,1.96,-1.68,1.33,-1.21,7.8
63,嫩江市,49.18,125.22,2026-04-06,0.15,5.59,3.91,0.61,3.42,0.5,0.0
64,五大连池市,48.51,126.19,2026-04-06,-2.28,2.61,1.5,-1.44,1.94,-2.22,5.72
65,孙吴县,49.43,127.33,2026-04-06,-0.15,5.66,4.65,0.22,3.64,-0.15,0.1
66,逊克县,49.57,128.48,2026-04-06,0.46,6.16,6.16,1.53,3.94,0.52,0.0
67,绥化市,46.65,126.96,2026-04-06,0.26,3.53,2.48,3.08,2.55,0.36,0.99
68,安达市,46.45,125.3,2026-04-06,-0.97,4.29,3.27,0.64,2.78,-0.82,0.62
69,海伦市,47.46,126.97,2026-04-06,0.07,4.33,1.88,0.61,1.63,0.44,5.16
70,肇东市,46.06,125.98,2026-04-06,-0.58,5.04,2.95,1.45,3.48,-0.1,0.51
71,兰西县,46.26,126.29,2026-04-06,-0.26,4.56,2.56,1.38,3.4,-0.03,0.71
72,明水县,47.17,125.91,2026-04-06,-0.77,3.35,0.34,0.95,2.2,-0.77,2.52
73,青冈县,46.69,126.1,2026-04-06,-1.4,3.88,1.96,0.84,3.08,-1.19,0.36
74,庆安县,46.88,127.5,2026-04-06,0.44,3.03,2.28,2.96,1.97,1.12,1.07
75,绥棱县,47.24,127.11,2026-04-06,0.68,4.45,2.14,1.61,2.79,0.68,2.73
76,望奎县,46.83,126.48,2026-04-06,-0.76,3.52,1.86,2.3,2.68,-0.76,0.45
77,加格达奇区,52.5,123.9,2026-04-06,-9.67,2.84,2.06,-7.14,-2.06,-8.37,0.0
78,漠河市,52.97,122.54,2026-04-06,-7.25,4.61,3.58,-3.98,0.34,-6.13,0.0
79,呼玛县,51.73,126.65,2026-04-06,-2.63,5.21,4.53,-1.95,1.14,-2.26,0.0
80,塔河县,52.33,124.7,2026-04-06,-7.89,3.91,3.25,-6.32,-1.41,-6.57,0.0
81,长春市,43.88,125.31,2026-04-06,-0.02,5.08,5.08,1.99,3.15,0.76,0.11
82,公主岭市,43.5,124.82,2026-04-06,0.46,4.75,4.75,1.77,3.06,1.33,0.0
83,德惠市,44.53,125.7,2026-04-06,-0.42,4.98,3.58,2.48,3.2,1.45,0.0
84,榆树市,44.82,126.55,2026-04-06,-1.1,4.03,3.65,2.21,2.47,0.92,0.0
85,农安县,44.43,125.18,2026-04-06,-0.72,3.95,2.0,1.58,2.31,-0.54,1.27
86,吉林市,43.83,126.55,2026-04-06,0.93,6.41,6.11,3.23,2.15,1.66,0.24
87,蛟河市,43.72,127.34,2026-04-06,0.34,6.43,4.7,3.78,2.62,1.53,3.62
88,桦甸市,42.97,126.74,2026-04-06,0.21,5.96,5.94,3.95,2.78,0.8,2.53
89,舒兰市,44.41,126.96,2026-04-06,-0.59,5.94,4.83,1.52,2.68,0.84,0.56
90,磐石市,42.94,126.06,2026-04-06,-0.35,5.49,5.26,3.01,2.11,1.14,0.97
91,永吉县,43.67,126.5,2026-04-06,0.93,6.41,6.11,3.23,2.15,1.66,0.24
92,四平市,43.16,124.35,2026-04-06,0.98,5.37,5.37,2.68,3.47,1.77,0.19
93,双辽市,43.52,123.5,2026-04-06,0.53,5.1,2.21,2.38,3.7,0.53,0.48
94,梨树县,43.3,124.33,2026-04-06,1.2,4.87,4.61,2.58,3.79,1.7,0.14
95,伊通满族自治县,43.34,125.3,2026-04-06,-0.32,5.52,5.22,2.35,1.17,0.83,1.33
96,辽源市,42.88,125.14,2026-04-06,-0.26,5.73,5.24,2.47,1.71,1.37,0.4
97,东丰县,42.67,125.53,2026-04-06,-0.9,4.94,4.67,3.1,1.27,1.01,0.11
98,东辽县,42.92,124.99,2026-04-06,-0.26,5.73,5.24,2.47,1.71,1.37,0.4
99,通化市,41.73,125.94,2026-04-06,-0.49,5.8,5.36,5.8,2.28,1.14,0.13
100,梅河口市,42.53,125.68,2026-04-06,-0.44,5.23,5.07,3.14,2.35,1.37,0.12
101,集安市,41.12,126.19,2026-04-06,-3.41,3.11,3.11,2.73,-0.44,-0.12,1.02
102,通化县,41.68,125.76,2026-04-06,-3.54,3.18,1.95,3.18,0.55,-2.19,0.38
103,辉南县,42.68,126.04,2026-04-06,0.03,5.6,5.39,2.66,2.28,1.73,0.7
104,柳河县,42.28,125.74,2026-04-06,-0.65,4.82,4.16,2.69,1.6,0.8,0.74
105,白山市,41.93,126.42,2026-04-06,-1.78,4.87,3.97,4.87,-0.43,-0.35,1.46
106,临江市,41.81,126.92,2026-04-06,-2.52,3.97,2.5,3.72,-0.42,0.04,5.05
107,抚松县,42.33,127.28,2026-04-06,-3.86,3.75,3.44,3.22,-0.85,-1.23,4.62
108,靖宇县,42.38,126.81,2026-04-06,-1.1,5.14,4.25,5.14,1.03,-0.11,1.24
109,长白朝鲜族自治县,41.41,128.2,2026-04-06,-2.42,6.73,6.21,4.1,-0.07,1.62,0.42
110,松原市,45.14,124.82,2026-04-06,0.12,4.86,3.25,1.59,2.77,0.12,0.2
111,扶余市,44.98,126.05,2026-04-06,-0.51,5.09,3.59,2.46,3.18,1.39,0.24
112,长岭县,44.27,123.96,2026-04-06,-0.43,4.53,1.3,0.09,2.95,-0.05,4.03
113,乾安县,45.0,124.03,2026-04-06,-1.25,4.74,3.65,0.71,1.62,-1.2,1.39
114,前郭尔罗斯蒙古族自治县,45.11,124.82,2026-04-06,0.12,4.86,3.25,1.59,2.77,0.12,0.2
115,白城市,41.93,126.42,2026-04-06,-1.78,4.87,3.97,4.87,-0.43,-0.35,1.46
116,洮南市,45.36,122.79,2026-04-06,-1.4,5.65,4.82,-0.86,2.61,-1.4,0.76
117,大安市,45.51,124.29,2026-04-06,-0.44,4.3,3.77,0.94,1.34,0.2,0.61
118,镇赉县,45.85,123.2,2026-04-06,-1.75,4.22,4.02,-0.3,1.74,-1.08,1.01
119,通榆县,44.8,123.09,2026-04-06,-1.49,5.28,4.13,-0.14,3.41,-0.85,1.22
120,延吉市,42.89,129.5,2026-04-06,0.79,9.27,8.1,2.34,4.83,1.96,2.93
121,图们市,42.97,129.84,2026-04-06,1.85,10.17,8.64,2.71,5.14,2.44,0.93
122,敦化市,43.37,128.23,2026-04-06,-1.86,5.88,5.16,4.2,2.16,0.69,4.43
123,珲春市,42.86,130.36,2026-04-06,3.4,11.88,9.77,3.65,6.72,4.15,0.0
124,龙井市,42.76,129.42,2026-04-06,0.66,9.43,8.24,2.57,4.94,2.54,2.05
125,和龙市,42.54,129.0,2026-04-06,-1.59,7.3,7.3,3.44,1.82,1.51,2.66
126,汪清县,43.31,129.76,2026-04-06,-0.76,6.69,5.4,0.58,3.27,0.82,4.57
127,安图县,43.11,128.9,2026-04-06,-1.68,6.33,5.76,2.55,2.38,1.37,10.39
128,海拉尔区,49.23,119.82,2026-04-06,-6.58,2.79,-0.02,-5.9,1.01,-6.58,1.28
129,满洲里市,49.58,117.43,2026-04-06,-7.29,3.9,1.34,-6.11,2.69,-6.84,0.0
130,牙克石市,49.28,120.73,2026-04-06,-9.74,1.41,0.54,-7.45,-2.28,-6.64,3.09
131,扎兰屯市,48.01,122.75,2026-04-06,-0.94,3.02,1.35,0.55,2.08,-0.72,3.38
132,额尔古纳市,50.24,120.18,2026-04-06,-10.72,1.18,0.75,-8.52,-3.63,-8.09,0.87
133,根河市,50.78,121.52,2026-04-06,-6.19,3.65,2.67,-3.3,-0.46,-4.62,0.0
134,阿荣旗,48.12,123.45,2026-04-06,-0.5,4.38,2.44,1.08,3.31,-0.5,2.88
135,陈巴尔虎旗,49.33,119.43,2026-04-06,-6.58,2.79,-0.02,-5.9,1.01,-6.58,1.28
136,新巴尔虎左旗,48.22,118.27,2026-04-06,-7.62,2.91,-0.44,-4.74,1.87,-7.62,0.0
137,新巴尔虎右旗,48.67,116.82,2026-04-06,-7.87,2.84,-0.04,-6.37,2.04,-7.87,0.0
138,莫力达瓦达斡尔族自治旗,48.48,124.51,2026-04-06,-1.65,3.77,2.56,-0.16,2.52,-0.67,1.25
139,鄂伦春自治旗,50.59,123.72,2026-04-06,-3.69,4.24,3.49,-0.88,0.32,-1.73,0.0
140,鄂温克族自治旗,49.15,119.75,2026-04-06,-6.58,2.79,-0.02,-5.9,1.01,-6.58,1.28
141,乌兰浩特市,46.07,122.09,2026-04-06,-3.11,3.99,3.79,-0.86,1.54,-3.11,0.12
142,阿尔山市,47.17,119.93,2026-04-06,-8.97,-2.92,-6.14,-7.52,-3.5,-8.97,1.11
143,突泉县,45.38,121.56,2026-04-06,-0.47,5.1,3.78,-0.47,3.22,-0.46,0.19
144,科尔沁右翼前旗,46.08,121.95,2026-04-06,-3.11,3.99,3.79,-0.86,1.54,-3.11,0.12
145,科尔沁右翼中旗,45.06,121.47,2026-04-06,-0.47,5.1,3.78,-0.47,3.22,-0.46,0.19
146,扎赉特旗,46.72,122.89,2026-04-06,-0.39,1.97,1.72,1.01,1.89,-0.39,3.28
147,科尔沁区,43.65,122.24,2026-04-06,0.04,6.9,2.6,2.74,5.34,0.53,0.0
148,霍林郭勒市,45.53,119.66,2026-04-06,-10.37,-1.95,-3.2,-6.59,-3.33,-10.37,0.0
149,开鲁县,43.6,121.31,2026-04-06,-0.63,7.09,5.31,2.82,5.61,-0.63,0.0
150,科尔沁左翼中旗,44.12,123.31,2026-04-06,-1.27,4.9,1.71,0.77,3.43,-0.75,3.26
151,科尔沁左翼后旗,42.96,122.36,2026-04-06,-0.68,6.44,4.19,3.53,5.13,-0.68,0.0
152,库伦旗,42.73,121.81,2026-04-06,-0.37,7.44,5.82,3.58,5.49,-0.37,0.0
153,奈曼旗,42.84,120.66,2026-04-06,-2.49,6.31,4.77,0.47,3.91,-2.49,0.0
154,扎鲁特旗,44.56,120.91,2026-04-06,-0.39,5.22,3.93,0.31,3.29,-0.13,0.21
155,赤峰市,42.26,118.89,2026-04-06,-2.99,5.49,4.14,-0.43,4.07,-2.99,0.0
156,林西县,43.61,118.06,2026-04-06,-6.38,1.21,-0.2,-4.83,-0.5,-6.15,0.0
157,宁城县,41.6,119.34,2026-04-06,-2.77,5.39,4.08,-0.01,4.0,-2.77,0.0
158,阿鲁科尔沁旗,43.88,120.09,2026-04-06,-3.53,6.03,5.24,1.01,3.37,-3.53,0.0
159,巴林左旗,43.98,119.38,2026-04-06,-5.95,3.07,2.79,-1.97,0.61,-5.95,0.0
160,巴林右旗,43.53,118.67,2026-04-06,-7.4,2.54,1.52,-4.11,0.28,-7.4,0.0
161,克什克腾旗,43.26,117.54,2026-04-06,-11.89,-2.46,-3.8,-9.6,-4.03,-11.89,0.2
162,翁牛特旗,42.94,119.02,2026-04-06,-4.51,5.04,3.95,-1.78,2.56,-4.51,0.0
163,喀喇沁旗,41.93,118.7,2026-04-06,-4.23,3.56,2.4,-1.79,2.28,-4.23,0.0
164,敖汉旗,42.29,119.92,2026-04-06,-5.0,2.94,1.42,-2.59,2.05,-5.0,0.0
165,沈阳市,41.79,123.45,2026-04-06,0.01,9.01,7.01,3.01,9.01,1.01,4.53
166,新民市,41.98,122.83,2026-04-06,1.59,9.99,7.25,3.52,7.28,1.59,2.77
167,康平县,42.5,123.43,2026-04-06,1.29,10.35,6.16,4.36,5.16,1.29,0.0
168,法库县,42.5,123.43,2026-04-06,1.29,10.35,6.16,4.36,5.16,1.29,0.0
169,大连市,38.92,121.64,2026-04-06,5.96,11.96,9.96,7.96,9.96,5.96,0.11
170,瓦房店市,39.62,122.0,2026-04-06,3.69,9.53,8.43,5.96,7.89,3.76,0.14
171,庄河市,39.68,122.96,2026-04-06,5.0,9.61,8.86,7.8,8.34,5.15,0.0
172,长海县,39.28,122.59,2026-04-06,4.54,9.6,8.59,7.56,7.91,4.54,0.0
173,鞍山市,41.10,122.99,2026-04-06,3.08,9.43,7.8,6.44,8.01,3.1,1.97
174,海城市,40.85,122.75,2026-04-06,3.32,9.9,8.05,7.03,6.86,3.49,0.0
175,台安县,41.38,122.43,2026-04-06,2.64,9.39,7.77,4.47,7.89,2.79,0.0
176,岫岩满族自治县,40.29,123.28,2026-04-06,2.9,8.93,7.51,5.56,7.24,3.4,0.0
177,抚顺市,41.88,123.96,2026-04-06,2.48,8.0,6.53,4.48,5.9,2.81,3.91
178,抚顺县,41.88,123.91,2026-04-06,2.48,8.0,6.53,4.48,5.9,2.81,3.91
179,新宾满族自治县,41.73,125.03,2026-04-06,-1.56,4.52,4.1,4.01,3.0,0.17,0.94
180,清原满族自治县,42.1,124.92,2026-04-06,-1.29,4.62,4.09,2.79,1.75,0.15,0.43
181,本溪市,41.29,123.77,2026-04-06,2.81,8.01,6.05,6.11,6.38,2.84,1.41
182,本溪满族自治县,41.3,124.11,2026-04-06,1.7,6.69,4.85,5.39,4.43,2.05,1.65
183,桓仁满族自治县,41.26,125.35,2026-04-06,0.3,6.9,5.86,6.9,3.99,2.26,0.0
184,丹东市,40.00,124.35,2026-04-06,4.31,9.78,9.48,7.12,8.13,4.52,0.0
185,东港市,39.86,124.15,2026-04-06,4.31,9.78,9.48,7.12,8.13,4.52,0.0
186,凤城市,40.45,124.06,2026-04-06,2.46,8.57,7.76,7.39,6.68,2.94,0.0
187,宽甸满族自治县,40.73,124.78,2026-04-06,-0.04,5.98,5.89,5.91,3.99,1.57,0.0
188,锦州市,41.09,121.12,2026-04-06,2.26,11.07,9.72,5.86,7.02,2.26,0.0
189,凌海市,41.16,121.35,2026-04-06,2.7,10.81,9.4,5.38,7.24,2.7,0.0
190,北镇市,41.6,121.8,2026-04-06,2.05,9.82,8.11,3.03,8.2,2.29,0.14
191,黑山县,41.67,122.12,2026-04-06,1.73,9.39,7.81,2.98,7.87,1.78,0.0
192,义县,41.53,121.23,2026-04-06,0.73,8.8,7.14,2.6,7.22,0.73,0.0
193,营口市,40.66,122.23,2026-04-06,3.73,7.08,6.58,5.67,5.27,3.8,0.13
194,盖州市,40.4,122.35,2026-04-06,3.43,9.99,8.2,6.12,6.85,3.46,0.0
195,大石桥市,40.63,122.51,2026-04-06,3.43,9.99,8.2,6.12,6.85,3.46,0.0
196,阜新市,42.02,121.67,2026-04-06,1.19,8.58,7.05,3.38,7.48,1.19,0.0
197,阜新蒙古族自治县,42.06,121.75,2026-04-06,1.11,8.28,6.66,3.45,7.33,1.11,0.0
198,彰武县,42.38,122.54,2026-04-06,1.3,9.57,7.14,3.45,7.12,1.3,0.0
199,辽阳市,41.26,123.23,2026-04-06,3.68,9.41,7.82,5.97,8.21,3.82,1.65
200,灯塔市,41.42,123.33,2026-04-06,3.68,9.41,7.82,5.97,8.21,3.82,1.65
201,辽阳县,41.2,123.1,2026-04-06,3.68,9.41,7.82,5.97,8.21,3.82,1.65
202,盘锦市,41.12,122.07,2026-04-06,2.98,10.92,8.66,4.69,7.05,2.98,0.0
203,盘山县,41.24,121.99,2026-04-06,2.98,10.92,8.66,4.69,7.05,2.98,0.0
204,铁岭市,42.22,123.72,2026-04-06,2.41,8.73,6.66,5.88,5.16,2.41,0.46
205,调兵山市,42.47,123.55,2026-04-06,1.29,10.35,6.16,4.36,5.16,1.29,0.0
206,开原市,42.54,124.03,2026-04-06,1.84,7.59,6.45,4.73,4.16,2.26,0.0
207,铁岭县,42.22,123.72,2026-04-06,2.41,8.73,6.66,5.88,5.16,2.41,0.46
208,西丰县,42.74,124.72,2026-04-06,-0.07,5.75,5.18,3.03,2.1,2.25,0.12
209,昌图县,42.78,124.1,2026-04-06,1.59,6.51,5.85,4.04,3.8,1.59,0.55
210,朝阳市,41.54,120.45,2026-04-06,0.7,9.43,8.2,4.09,7.77,0.7,0.0
211,北票市,41.8,120.77,2026-04-06,0.55,8.99,7.66,3.69,7.57,0.55,0.0
212,凌源市,41.24,119.4,2026-04-06,-1.76,7.22,5.72,1.16,5.05,-1.76,0.0
213,朝阳县,41.57,120.45,2026-04-06,0.7,9.43,8.2,4.09,7.77,0.7,0.0
214,建平县,41.4,119.64,2026-04-06,-1.5,6.96,5.92,1.82,5.49,-1.5,0.0
215,喀喇沁左翼蒙古族自治县,41.12,119.74,2026-04-06,-0.9,7.44,6.46,2.82,6.15,-0.9,0.0
216,葫芦岛市,40.56,120.38,2026-04-06,3.46,11.34,11.34,7.09,5.33,3.66,0.0
217,兴城市,40.61,120.73,2026-04-06,3.58,9.76,9.76,6.51,4.83,3.58,0.0
218,绥中县,40.32,120.34,2026-04-06,3.46,11.34,11.34,7.09,5.33,3.66,0.0
219,建昌县,40.81,119.8,2026-04-06,0.49,11.51,8.25,4.06,4.38,0.49,0.0
1,哈尔滨市,45.58,126.29,2026-04-07,-0.93,9.79,8.49,-0.93,6.14,-0.38,0.0
2,尚志市,45.21,127.96,2026-04-07,-0.45,8.97,8.11,0.04,4.69,0.63,0.31
3,五常市,44.92,127.16,2026-04-07,-0.92,9.03,7.74,-0.85,5.85,0.78,0.0
4,巴彦县,46.08,127.4,2026-04-07,-1.51,9.97,8.76,0.84,6.53,-0.51,0.0
5,宾县,45.75,127.48,2026-04-07,-0.48,9.48,8.18,0.11,6.2,-0.15,0.0
6,方正县,45.83,128.82,2026-04-07,-0.14,8.22,6.79,0.06,2.32,0.02,4.15
7,木兰县,45.95,128.04,2026-04-07,-1.16,9.95,9.01,0.84,5.9,-0.71,0.0
8,通河县,45.97,128.75,2026-04-07,-2.36,9.38,8.71,0.12,5.05,-1.21,0.31
9,延寿县,45.45,128.33,2026-04-07,-0.26,9.13,8.1,0.36,4.9,0.22,0.94
10,依兰县,46.31,129.56,2026-04-07,-3.29,10.04,7.12,-0.33,5.59,-2.14,0.73
11,齐齐哈尔市,47.35,123.84,2026-04-07,-1.73,10.95,9.61,1.21,8.07,-1.09,0.0
12,讷河市,48.46,124.88,2026-04-07,-1.09,11.06,8.89,-0.04,8.29,-0.39,0.0
13,拜泉县,47.6,126.09,2026-04-07,-2.62,10.53,7.14,-0.51,8.12,-1.9,0.0
14,富裕县,47.77,124.47,2026-04-07,-1.96,11.39,9.59,0.57,8.47,-1.3,0.0
15,甘南县,47.91,123.5,2026-04-07,-1.03,11.41,9.94,0.78,9.5,-0.67,0.0
16,克东县,48.04,126.25,2026-04-07,-2.13,9.74,6.9,-1.06,7.48,-1.36,0.0
17,克山县,48.04,125.88,2026-04-07,-3.12,9.57,6.39,-1.54,7.28,-2.3,0.0
18,龙江县,47.33,123.2,2026-04-07,-0.69,10.73,9.92,1.02,7.63,-0.58,0.0
19,泰来县,46.39,123.41,2026-04-07,-0.9,10.98,9.5,2.11,8.24,-0.45,0.0
20,依安县,47.89,125.3,2026-04-07,-3.44,10.33,7.25,-0.82,8.11,-2.76,0.0
21,牡丹江市,44.57,129.55,2026-04-07,0.7,7.75,6.01,0.74,3.86,1.36,0.0
22,东宁市,44.09,131.12,2026-04-07,0.49,8.45,6.99,1.13,5.51,1.95,0.2
23,海林市,44.59,129.37,2026-04-07,0.44,7.66,5.76,0.45,3.66,1.1,0.0
24,穆棱市,44.92,130.52,2026-04-07,-0.3,7.38,5.21,0.35,3.97,0.27,1.15
25,宁安市,44.34,129.48,2026-04-07,-0.89,6.35,4.71,-0.31,2.81,0.49,0.1
26,绥芬河市,44.41,131.16,2026-04-07,-2.65,4.58,3.07,-2.24,1.68,-1.48,0.4
27,林口县,45.28,130.27,2026-04-07,-1.43,7.17,5.33,-0.13,3.99,-0.93,0.0
28,佳木斯市,46.8,130.31,2026-04-07,-2.59,10.72,7.98,-1.48,6.74,-1.26,0.1
29,抚远市,48.36,134.3,2026-04-07,-2.39,3.53,2.13,-1.49,-0.73,-2.0,0.87
30,富锦市,46.33,132.19,2026-04-07,-1.19,7.8,4.93,-0.6,4.63,-0.84,1.23
31,同江市,47.64,132.5,2026-04-07,-3.1,9.29,5.91,-0.69,3.42,-1.51,0.22
32,桦川县,46.24,130.55,2026-04-07,-2.1,8.97,5.97,-1.0,5.17,-1.16,0.0
33,桦南县,46.24,130.55,2026-04-07,-2.1,8.97,5.97,-1.0,5.17,-1.16,0.0
34,汤原县,46.73,129.9,2026-04-07,-3.83,10.51,7.84,-1.9,5.86,-2.02,0.0
35,大庆市,46.58,125.1,2026-04-07,-0.92,10.4,9.43,1.44,8.44,-0.67,0.0
36,杜尔伯特蒙古族自治县,46.86,124.44,2026-04-07,-1.76,9.57,8.15,1.31,7.53,-1.43,0.0
37,林甸县,47.17,124.86,2026-04-07,-1.98,10.28,8.51,1.19,8.28,-1.49,0.0
38,肇源县,45.52,125.08,2026-04-07,-0.43,9.92,8.67,0.86,6.76,-0.27,0.0
39,肇州县,45.7,125.26,2026-04-07,-0.83,10.0,8.8,1.17,6.53,-0.65,0.0
40,鸡西市,45.3,125.1,2026-04-07,-0.43,9.92,8.67,0.86,6.76,-0.27,0.0
41,虎林市,45.76,132.93,2026-04-07,-0.69,6.36,4.1,0.83,3.64,-0.23,0.12
42,密山市,45.53,131.84,2026-04-07,-1.22,7.27,4.3,0.23,4.09,-0.82,0.0
43,鸡东县,45.26,131.12,2026-04-07,-0.91,7.94,5.32,0.63,5.29,-0.31,0.32
44,双鸭山市,46.64,131.15,2026-04-07,-1.41,8.43,5.12,-1.41,4.82,-0.47,1.76
45,宝清县,46.33,132.19,2026-04-07,-1.19,7.8,4.93,-0.6,4.63,-0.84,1.23
46,集贤县,46.73,131.13,2026-04-07,-1.31,8.97,5.6,-1.2,5.57,-0.64,0.98
47,饶河县,46.79,134.01,2026-04-07,-4.39,3.34,2.5,0.68,-2.16,-1.75,2.27
48,友谊县,46.77,131.8,2026-04-07,-1.24,9.01,5.98,-0.64,5.36,-0.64,0.65
49,伊春市,47.72,128.84,2026-04-07,-3.65,10.25,8.9,-2.3,5.47,-2.29,0.0
50,铁力市,46.98,128.02,2026-04-07,-1.88,10.51,8.83,0.78,7.55,-0.89,0.0
51,大箐山县,47.14,129.28,2026-04-07,-5.3,10.44,8.62,-2.31,3.09,-2.54,0.0
52,丰林县,48.29,129.53,2026-04-07,-6.38,9.72,8.32,-3.79,5.23,-3.31,0.0
53,嘉荫县,48.89,130.39,2026-04-07,-4.29,9.99,8.16,-1.0,5.15,-1.31,0.0
54,南岔县,47.14,129.28,2026-04-07,-5.3,10.44,8.62,-2.31,3.09,-2.54,0.0
55,汤旺县,48.45,129.43,2026-04-07,-8.37,8.76,7.19,-6.23,3.83,-4.03,0.0
56,七台河市,45.77,131.0,2026-04-07,-2.46,6.81,3.35,-0.98,4.18,-1.57,0.58
57,勃利县,45.75,130.57,2026-04-07,-1.83,7.27,4.27,-0.91,4.13,-1.08,1.26
58,鹤岗市,47.35,130.29,2026-04-07,-5.26,11.08,7.73,-2.63,6.18,-2.42,0.0
59,萝北县,47.57,130.84,2026-04-07,-2.71,11.24,8.0,-1.0,6.84,-1.62,0.0
60,绥滨县,47.29,131.85,2026-04-07,-3.26,8.28,4.28,-0.4,4.95,-1.61,0.19
61,黑河市,50.24,127.52,2026-04-07,-2.68,11.32,10.32,-0.68,9.32,-2.68,0.0
62,北安市,48.24,126.49,2026-04-07,-2.13,9.74,6.9,-1.06,7.48,-1.36,0.0
63,嫩江市,49.18,125.22,2026-04-07,-0.6,9.96,8.64,0.05,7.26,0.27,0.0
64,五大连池市,48.51,126.19,2026-04-07,-1.81,9.36,6.83,-0.81,7.31,-0.94,0.0
65,孙吴县,49.43,127.33,2026-04-07,-1.14,8.11,7.57,0.07,5.65,-0.19,0.0
66,逊克县,49.57,128.48,2026-04-07,-1.04,9.68,8.56,0.47,6.62,-0.08,0.0
67,绥化市,46.65,126.96,2026-04-07,-1.03,10.67,8.81,2.0,7.79,-0.23,0.0
68,安达市,46.45,125.3,2026-04-07,-1.2,10.46,9.38,1.31,7.98,-0.9,0.0
69,海伦市,47.46,126.97,2026-04-07,-2.1,10.73,8.07,0.1,8.02,-1.2,0.0
70,肇东市,46.06,125.98,2026-04-07,-1.48,10.67,9.58,-0.25,7.82,-0.97,0.0
71,兰西县,46.26,126.29,2026-04-07,-1.12,10.34,9.03,-0.27,7.95,-0.48,0.0
72,明水县,47.17,125.91,2026-04-07,-2.65,10.06,7.85,-0.14,7.72,-2.07,0.0
73,青冈县,46.69,126.1,2026-04-07,-1.74,10.24,8.99,1.0,7.96,-1.05,0.0
74,庆安县,46.88,127.5,2026-04-07,-2.16,10.16,8.69,1.15,7.49,-1.11,0.0
75,绥棱县,47.24,127.11,2026-04-07,-1.47,10.99,8.76,0.62,8.2,-0.73,0.0
76,望奎县,46.83,126.48,2026-04-07,-1.21,10.65,8.84,1.59,7.84,-0.52,0.0
77,加格达奇区,52.5,123.9,2026-04-07,-7.03,4.88,4.88,-6.34,-0.65,-5.7,0.0
78,漠河市,52.97,122.54,2026-04-07,-5.05,4.56,4.41,-3.94,1.02,-3.4,0.0
79,呼玛县,51.73,126.65,2026-04-07,-1.24,7.54,7.31,-1.18,4.32,-0.22,0.0
80,塔河县,52.33,124.7,2026-04-07,-6.53,6.68,5.84,-5.51,0.73,-5.12,0.0
81,长春市,43.88,125.31,2026-04-07,-0.52,9.01,7.83,-0.3,6.87,1.35,0.43
82,公主岭市,43.5,124.82,2026-04-07,-0.43,9.34,7.92,0.67,7.05,1.42,1.02
83,德惠市,44.53,125.7,2026-04-07,0.15,9.36,8.38,0.24,6.7,0.52,0.15
84,榆树市,44.82,126.55,2026-04-07,-1.31,9.34,8.04,-1.31,5.97,1.06,0.0
85,农安县,44.43,125.18,2026-04-07,-0.73,8.64,7.55,0.33,5.4,-0.73,0.21
86,吉林市,43.83,126.55,2026-04-07,-0.48,9.05,7.47,0.6,6.37,1.08,0.93
87,蛟河市,43.72,127.34,2026-04-07,-0.25,7.68,3.65,0.08,4.0,0.44,0.17
88,桦甸市,42.97,126.74,2026-04-07,-0.74,7.99,4.51,0.28,4.91,0.17,0.46
89,舒兰市,44.41,126.96,2026-04-07,-1.02,8.95,7.31,-0.69,5.75,0.31,0.27
90,磐石市,42.94,126.06,2026-04-07,-0.88,7.91,4.29,-0.71,5.16,0.6,1.16
91,永吉县,43.67,126.5,2026-04-07,-0.48,9.05,7.47,0.6,6.37,1.08,0.93
92,四平市,43.16,124.35,2026-04-07,-0.07,10.24,9.11,1.63,8.19,1.02,0.81
93,双辽市,43.52,123.5,2026-04-07,0.26,11.07,10.27,1.75,8.63,0.61,0.0
94,梨树县,43.3,124.33,2026-04-07,-0.17,10.29,9.09,1.69,8.35,0.95,0.82
95,伊通满族自治县,43.34,125.3,2026-04-07,-1.03,8.5,6.34,-0.45,5.78,0.74,1.53
96,辽源市,42.88,125.14,2026-04-07,-0.39,8.99,7.2,0.18,6.61,0.74,0.88
97,东丰县,42.67,125.53,2026-04-07,-1.27,8.0,4.82,-0.66,5.47,0.23,0.83
98,东辽县,42.92,124.99,2026-04-07,-0.39,8.99,7.2,0.18,6.61,0.74,0.88
99,通化市,41.73,125.94,2026-04-07,-0.89,5.84,4.07,-0.35,3.51,-0.89,0.12
100,梅河口市,42.53,125.68,2026-04-07,-0.76,8.12,4.83,-0.36,5.77,0.27,0.43
101,集安市,41.12,126.19,2026-04-07,-4.21,4.3,2.39,-3.51,-0.6,-3.33,0.0
102,通化县,41.68,125.76,2026-04-07,-3.9,4.71,2.88,-3.69,2.04,-3.65,0.0
103,辉南县,42.68,126.04,2026-04-07,-0.82,8.08,4.4,-0.27,5.61,0.56,0.57
104,柳河县,42.28,125.74,2026-04-07,-1.58,6.74,4.19,-0.18,3.46,-0.88,1.21
105,白山市,41.93,126.42,2026-04-07,-2.13,4.6,3.31,-1.8,0.97,-1.48,1.42
106,临江市,41.81,126.92,2026-04-07,-2.88,4.05,3.07,-2.36,0.06,-2.09,0.71
107,抚松县,42.33,127.28,2026-04-07,-4.56,1.63,0.66,-2.66,-2.4,-2.8,3.16
108,靖宇县,42.38,126.81,2026-04-07,-1.7,5.53,2.48,-1.31,1.49,-0.86,1.6
109,长白朝鲜族自治县,41.41,128.2,2026-04-07,-3.16,4.47,3.77,-3.16,-0.18,-2.34,0.25
110,松原市,45.14,124.82,2026-04-07,-0.15,9.91,8.64,1.6,6.99,0.02,0.0
111,扶余市,44.98,126.05,2026-04-07,0.05,9.55,8.54,0.05,6.58,0.76,0.0
112,长岭县,44.27,123.96,2026-04-07,-0.55,9.59,8.55,0.76,7.07,-0.55,0.84
113,乾安县,45.0,124.03,2026-04-07,-0.5,9.9,8.48,1.94,7.01,-0.19,0.0
114,前郭尔罗斯蒙古族自治县,45.11,124.82,2026-04-07,-0.15,9.91,8.64,1.6,6.99,0.02,0.0
115,白城市,41.93,126.42,2026-04-07,-2.13,4.6,3.31,-1.8,0.97,-1.48,1.42
116,洮南市,45.36,122.79,2026-04-07,-0.21,11.12,9.91,2.18,8.64,-0.08,0.0
117,大安市,45.51,124.29,2026-04-07,-0.45,9.83,8.6,2.07,7.33,-0.03,0.0
118,镇赉县,45.85,123.2,2026-04-07,-0.58,10.73,9.51,2.14,8.1,-0.21,0.0
119,通榆县,44.8,123.09,2026-04-07,-0.22,10.57,9.42,2.35,7.22,-0.08,0.0
120,延吉市,42.89,129.5,2026-04-07,-0.31,8.57,7.59,0.05,5.45,1.05,0.0
121,图们市,42.97,129.84,2026-04-07,-0.28,10.16,8.44,0.95,6.05,1.41,0.0
122,敦化市,43.37,128.23,2026-04-07,-1.88,5.47,3.46,-0.62,2.68,-0.52,0.21
123,珲春市,42.86,130.36,2026-04-07,0.56,11.96,10.19,3.66,7.25,1.73,0.0
124,龙井市,42.76,129.42,2026-04-07,-0.17,8.69,6.77,0.21,5.36,1.14,0.25
125,和龙市,42.54,129.0,2026-04-07,-1.95,5.21,4.74,-1.88,1.1,-0.16,0.0
126,汪清县,43.31,129.76,2026-04-07,-3.86,8.22,7.16,-1.39,3.29,-1.14,0.0
127,安图县,43.11,128.9,2026-04-07,-2.09,6.37,5.19,-2.09,1.26,-0.62,0.34
128,海拉尔区,49.23,119.82,2026-04-07,-4.55,6.38,3.45,-2.14,4.9,-4.55,0.0
129,满洲里市,49.58,117.43,2026-04-07,-4.66,11.85,5.86,-3.83,10.45,-4.39,0.0
130,牙克石市,49.28,120.73,2026-04-07,-11.93,2.8,-0.04,-10.46,1.05,-10.57,0.0
131,扎兰屯市,48.01,122.75,2026-04-07,-3.17,10.56,8.55,-1.49,7.61,-2.62,0.0
132,额尔古纳市,50.24,120.18,2026-04-07,-11.8,2.59,-0.37,-10.97,1.59,-9.41,0.0
133,根河市,50.78,121.52,2026-04-07,-8.28,1.89,0.97,-6.69,0.62,-6.52,0.0
134,阿荣旗,48.12,123.45,2026-04-07,-1.03,11.41,9.94,0.78,9.5,-0.67,0.0
